,name,category,latitude,longitude,rating,reviews,photo,street_view
0,Lovina Beach,Beach,-8.161141,115.02435659999999,4.4,766.0,https://lh5.googleusercontent.com/p/AF1QipOjQxva6Q7v612r8cPwupvpHid-mmSEQLx9q8uC=w800-h500-k-no,https://lh5.googleusercontent.com/p/AF1QipP_7bpEl6nV4QkdgIdeLTTyefWYpx1ltqa8MYXu=w1600-h1000-k-no
1,Biaung Beach,Beach,-8.6526837,115.2704193,4.2,515.0,https://lh5.googleusercontent.com/p/AF1QipN0uWOU6CS6znkgKNmXseSsIYwevA0yv9y7WiVn=w800-h500-k-no,https://lh5.googleusercontent.com/p/AF1QipN0uWOU6CS6znkgKNmXseSsIYwevA0yv9y7WiVn=w1600-h1000-k-no
2,Pantai Segara Ayu,Beach,-8.6824631,115.2643001,4.5,1727.0,https://lh5.googleusercontent.com/p/AF1QipPP-MV7qIEUvPqOoUqOgc2j8gI_MvxuHKSVUAAA=w800-h500-k-no,https://lh5.googleusercontent.com/p/AF1QipPP-MV7qIEUvPqOoUqOgc2j8gI_MvxuHKSVUAAA=w1600-h1000-k-no
3,Sanur,Beach,-8.7071782,115.2626236,4.5,4395.0,https://lh5.googleusercontent.com/p/AF1QipM5xr9iag9T2d-Q5kQqjYltNL5QW8TOVlVi4Q7v=w800-h500-k-no,https://lh5.googleusercontent.com/p/AF1QipM5xr9iag9T2d-Q5kQqjYltNL5QW8TOVlVi4Q7v=w1600-h1000-k-no
4,Werdhapura Beach,Beach,-8.6913754,115.26653999999999,4.3,173.0,https://lh5.googleusercontent.com/p/AF1QipO-hmRSJd2fLFboLnOKgHUAtNLZU8WJN6fuqVcU=w800-h500-k-no,https://lh5.googleusercontent.com/p/AF1QipO-hmRSJd2fLFboLnOKgHUAtNLZU8WJN6fuqVcU=w1600-h1000-k-no
5,Sindhu,Beach,-8.684166699999999,115.26444440000002,4.6,745.0,https://lh5.googleusercontent.com/p/AF1QipOZkgrLMfFrQGKba6GVZg7N29WMhT4Ih24hQpPe=w800-h500-k-no,https://lh5.googleusercontent.com/p/AF1QipOZkgrLMfFrQGKba6GVZg7N29WMhT4Ih24hQpPe=w1600-h1000-k-no
6,Warung Citra seagara beach (Sanur),Beach,-8.682652599999999,115.2640596,4.3,285.0,https://lh5.googleusercontent.com/p/AF1QipPU8qEACQF9TTnzbU3B_q2iqqBMNBa6Etuhmvae=w800-h500-k-no,https://lh5.googleusercontent.com/p/AF1QipPU8qEACQF9TTnzbU3B_q2iqqBMNBa6Etuhmvae=w1600-h1000-k-no
7,Padang Galak Beach,Tourist attraction,-8.658190600000001,115.26538000000001,4.3,3.0,https://lh5.googleusercontent.com/p/AF1QipO0Wtloz6Q9YfjQs7CVj2ZOclmEOduCeE1iOHc=w800-h500-k-no,https://lh5.googleusercontent.com/p/AF1QipO0Wtloz6Q9YfjQs7CVj2ZOclmEOduCeE1iOHc=w1600-h1000-k-no
8,Pantai Padang Galak,Public beach,-8.6611382,115.26330060000001,4.6,133.0,https://lh5.googleusercontent.com/p/AF1QipMhMrLX6VlsEzPNRfw2GH0v7XQ9CKSnQ1ncld2A=w800-h500-k-no,https://lh5.googleusercontent.com/p/AF1QipMhMrLX6VlsEzPNRfw2GH0v7XQ9CKSnQ1ncld2A=w1600-h1000-k-no
9,Jalasena Beach Park,Park,-8.6827577,115.20397659999998,,,https://streetviewpixels-pa.googleapis.com/v1/thumbnail?panoid=Wjzzq1iMkG5sXavMSN7oYg&cb_client=search.gws-prod.gps&w=800&h=500&yaw=277.16534&pitch=0&thumbfov=100,https://streetviewpixels-pa.googleapis.com/v1/thumbnail?panoid=Wjzzq1iMkG5sXavMSN7oYg&cb_client=search.gws-prod.gps&w=1600&h=1000&yaw=277.16534&pitch=0&thumbfov=100
10,Double Six Beach,Beach,-8.6975406,115.1621384,4.5,12181.0,https://lh5.googleusercontent.com/p/AF1QipMLTsydlkAgLGb161UmWvpZQqtStl4sCUBOf7rq=w800-h500-k-no,https://lh5.googleusercontent.com/p/AF1QipMLTsydlkAgLGb161UmWvpZQqtStl4sCUBOf7rq=w1600-h1000-k-no
11,Seminyak Beach,Beach,-8.6920123,115.1578837,4.5,3061.0,https://lh5.googleusercontent.com/p/AF1QipPqjJff9Ms8JK0FbSyeymfW3Sd5lNzlNk7STYMt=w800-h500-k-no,https://lh5.googleusercontent.com/p/AF1QipPqjJff9Ms8JK0FbSyeymfW3Sd5lNzlNk7STYMt=w1600-h1000-k-no
12,Pantai Kayu Putih,Beach,-8.670751300000001,115.1427902,4.3,490.0,https://lh5.googleusercontent.com/p/AF1QipNc36JXt6HsGS6f65RbvULF1BNbkI6snHkn-IhL=w800-h500-k-no,https://lh5.googleusercontent.com/p/AF1QipNc36JXt6HsGS6f65RbvULF1BNbkI6snHkn-IhL=w1600-h1000-k-no
13,Dream Island Bali Beach Club,Recreation center,-8.712157199999998,115.24718590000002,4.3,519.0,https://lh5.googleusercontent.com/p/AF1QipO9rEcKhrSbN_fVZQUiivoGRi1VCizHbVg6v53L=w800-h500-k-no,https://lh5.googleusercontent.com/p/AF1QipO9rEcKhrSbN_fVZQUiivoGRi1VCizHbVg6v53L=w1600-h1000-k-no
14,Prama Sanur Beach Hotel Bali,Hotel,-8.7094607,115.2564662,4.5,3527.0,//lh6.googleusercontent.com/proxy/-Fgn1UlxVLzMBZ3pSf1qUM-LoJnFmuXvmwI9ZFzyfznkjNYiXi5jNP5z0sflGZlCwrdinoDaYlS8XkBL7PYG8LdCvZhU-eWA5WH-0V2xu7d0YtELj2YF59fxag_MezO3tDkt0cqtAF6Bw715H02qoFzl-oWUSeo=w800-h500-k-no,//lh6.googleusercontent.com/proxy/-Fgn1UlxVLzMBZ3pSf1qUM-LoJnFmuXvmwI9ZFzyfznkjNYiXi5jNP5z0sflGZlCwrdinoDaYlS8XkBL7PYG8LdCvZhU-eWA5WH-0V2xu7d0YtELj2YF59fxag_MezO3tDkt0cqtAF6Bw715H02qoFzl-oWUSeo=w1600-h1000-k-no
15,Sanur Beach Harbour,Boat ramp,-8.6735678,115.26345549999999,4.4,1056.0,https://lh5.googleusercontent.com/p/AF1QipNpNG8X7s3Q4BccbykwQaezgy9hqS5gebkYbBhk=w800-h500-k-no,https://lh5.googleusercontent.com/p/AF1QipNpNG8X7s3Q4BccbykwQaezgy9hqS5gebkYbBhk=w1600-h1000-k-no
16,Вход на пляж,Beach,-8.8154158,115.2263243,4.3,3.0,https://lh5.googleusercontent.com/p/AF1QipPv4dKa0fhL1ivCcibfFLLdP2WQOQkquSSS7ZHy=w800-h500-k-no,https://lh5.googleusercontent.com/p/AF1QipPv4dKa0fhL1ivCcibfFLLdP2WQOQkquSSS7ZHy=w1600-h1000-k-no
17,Cemara Beach,Family restaurant,-8.7099235,115.2582439,4.4,62.0,https://lh5.googleusercontent.com/p/AF1QipMoHv-ZY65qnpWODByK0Mx_CeWBUtk-n9I9jJ-k=w800-h500-k-no,https://lh5.googleusercontent.com/p/AF1QipMoHv-ZY65qnpWODByK0Mx_CeWBUtk-n9I9jJ-k=w1600-h1000-k-no
18,Bali Beach Driving Range,Golf driving range,-8.6776648,115.2638127,,,https://streetviewpixels-pa.googleapis.com/v1/thumbnail?panoid=QJkBvhNJF2_aSNfZ00tARA&cb_client=search.gws-prod.gps&w=800&h=500&yaw=90.327156&pitch=0&thumbfov=100,https://streetviewpixels-pa.googleapis.com/v1/thumbnail?panoid=QJkBvhNJF2_aSNfZ00tARA&cb_client=search.gws-prod.gps&w=1600&h=1000&yaw=90.327156&pitch=0&thumbfov=100
19,Bali Lovina Beach Hotel,Hotel,-8.649287800000002,115.2169176,,,https://streetviewpixels-pa.googleapis.com/v1/thumbnail?panoid=vUYj7kIKRSFxJ4mSojDXJg&cb_client=search.gws-prod.gps&w=800&h=500&yaw=173.17104&pitch=0&thumbfov=100,https://streetviewpixels-pa.googleapis.com/v1/thumbnail?panoid=vUYj7kIKRSFxJ4mSojDXJg&cb_client=search.gws-prod.gps&w=1600&h=1000&yaw=173.17104&pitch=0&thumbfov=100
20,Pererenan Beach,Public beach,-8.651845699999999,115.12154109999999,4.5,787.0,https://lh5.googleusercontent.com/p/AF1QipM3EALXCbalXZpMEPWf595vSy5FfVn8ubra8-bS=w800-h500-k-no,https://lh5.googleusercontent.com/p/AF1QipM3EALXCbalXZpMEPWf595vSy5FfVn8ubra8-bS=w1600-h1000-k-no
21,7lazLifestyle Beach Club Sanur - Bali Indonesia,Shopping mall,-8.687614100000001,115.26316909999998,5.0,4.0,https://lh5.googleusercontent.com/p/AF1QipNV-eW1BmDrw6NBzyBxGqLGOnBMBk7xpWxYtKMq=w800-h500-k-no,https://lh5.googleusercontent.com/p/AF1QipNV-eW1BmDrw6NBzyBxGqLGOnBMBk7xpWxYtKMq=w1600-h1000-k-no
22,Soul on the Beach,Restaurant,-8.685071,115.26446709999999,4.6,1778.0,https://lh5.googleusercontent.com/p/AF1QipNceMN0Sy92bWOhJIYcdmjmkLfMaES-NC7NI9sE=w800-h500-k-no,https://lh5.googleusercontent.com/p/AF1QipNceMN0Sy92bWOhJIYcdmjmkLfMaES-NC7NI9sE=w1600-h1000-k-no
23,Hang Tuah beach house,Villa,-8.672323,115.2612879,,,https://lh5.googleusercontent.com/p/AF1QipO6CLWrlfc8yQU93Md8PpUT-ikz6JIxWnlKxJWX=w800-h500-k-no,https://lh5.googleusercontent.com/p/AF1QipO6CLWrlfc8yQU93Md8PpUT-ikz6JIxWnlKxJWX=w1600-h1000-k-no
24,TKD By the Beach,Coffee store,-8.671213900000001,115.2619521,4.0,8.0,https://lh5.googleusercontent.com/p/AF1QipNd5Cz1lJ1Cfr_88HlZgVkmfkL9TewrU5_fKbe0=w800-h500-k-no,https://lh5.googleusercontent.com/p/AF1QipNd5Cz1lJ1Cfr_88HlZgVkmfkL9TewrU5_fKbe0=w1600-h1000-k-no
25,Shindu Beach,Photographer,-8.683794699999998,115.26414540000002,4.6,14.0,https://lh5.googleusercontent.com/p/AF1QipOKhkb7IKTcMp7DdKCX6B30sKDq0PUh6riM9YRm=w800-h500-k-no,https://lh5.googleusercontent.com/p/AF1QipOKhkb7IKTcMp7DdKCX6B30sKDq0PUh6riM9YRm=w1600-h1000-k-no
26,Peneeda View beach hotel,Hotel,-8.698144699999999,115.2646368,4.4,231.0,//lh5.googleusercontent.com/proxy/undIYsyhe-UQP9GR1LsLc5qysjDpAkzKV3NYnD8v63kQJzVhlgiPFnvFdyftok7V32FGNVBOs-KnERKWbuCDbTqlBrZ5CtgBlrXum-88ItAUcp7fcHuKFq0Hi7jXwHtaFLxnHPa8SObxrt6UuvX0ascWRLMZkrI=w800-h500-k-no,//lh5.googleusercontent.com/proxy/undIYsyhe-UQP9GR1LsLc5qysjDpAkzKV3NYnD8v63kQJzVhlgiPFnvFdyftok7V32FGNVBOs-KnERKWbuCDbTqlBrZ5CtgBlrXum-88ItAUcp7fcHuKFq0Hi7jXwHtaFLxnHPa8SObxrt6UuvX0ascWRLMZkrI=w1600-h1000-k-no
27,The Beach House Sanur,Villa,-8.6712165,115.2616882,4.1,7.0,https://streetviewpixels-pa.googleapis.com/v1/thumbnail?panoid=46Vn4qSW3bkTfqvHDpWGHQ&cb_client=search.gws-prod.gps&w=800&h=500&yaw=107.229744&pitch=0&thumbfov=100,https://lh5.googleusercontent.com/p/AF1QipMxIfMmFeGfjq0G4DIKNkZ3wmME7vEU1jbwB8Ep=w1600-h1000-k-no
28,Kost Biaung Beach,Homestay,-8.6529015,115.2618022,,,https://streetviewpixels-pa.googleapis.com/v1/thumbnail?panoid=pGVhQiVhzfkklMl31uPeAg&cb_client=search.gws-prod.gps&w=800&h=500&yaw=29.83532&pitch=0&thumbfov=100,https://streetviewpixels-pa.googleapis.com/v1/thumbnail?panoid=pGVhQiVhzfkklMl31uPeAg&cb_client=search.gws-prod.gps&w=1600&h=1000&yaw=29.83532&pitch=0&thumbfov=100
29,HOTEL RESPATI,Hotel,-8.687731699999999,115.26508329999999,4.2,312.0,//lh5.googleusercontent.com/proxy/CAP8Pr64pU3JcKqgTsEAgyduZl_tmlpn7lGB5GIKh6z0L_OugZniHENFloOfQkOcT2oBMVNAVwVk0PgaWa8dSm0mDy_8K1Zg9KrQVlMmackNlteSAoU_DrkHuaX1819QId6g3gheJ9MklmH5JNFPuuOYpEXFJKI=w800-h500-k-no,//lh5.googleusercontent.com/proxy/CAP8Pr64pU3JcKqgTsEAgyduZl_tmlpn7lGB5GIKh6z0L_OugZniHENFloOfQkOcT2oBMVNAVwVk0PgaWa8dSm0mDy_8K1Zg9KrQVlMmackNlteSAoU_DrkHuaX1819QId6g3gheJ9MklmH5JNFPuuOYpEXFJKI=w1600-h1000-k-no
30,Bali Beach Villas,Hotel,-8.6968265,115.22723959999999,5.0,1.0,https://streetviewpixels-pa.googleapis.com/v1/thumbnail?panoid=m4FOYbeEttNIj6BLnfuKKA&cb_client=search.gws-prod.gps&w=800&h=500&yaw=90.62292&pitch=0&thumbfov=100,https://lh5.googleusercontent.com/p/AF1QipNifkPWAXrCXa768-rnZDJWrvjqjDXCGtea9dln=w1600-h1000-k-no
31,New Ananda Beach Hotel,Hotel,-8.673552599999999,115.26279299999999,3.4,144.0,//lh3.googleusercontent.com/proxy/ZjnJ3FUJXwGyjRmDcPjE88wjwaGclslNm_d92kDO2sJcT4kAytEww-AAcO5XunQbhPryfjARUb1rdO7Gvx-gPnaHRrfkNPCJSsglBPn1YYIQr9UMvBpRr6g963-cLANdVpS9tKUQTUAMyC2ZmDNSNZBy24tZJQ=w800-h500-k-no,//lh3.googleusercontent.com/proxy/ZjnJ3FUJXwGyjRmDcPjE88wjwaGclslNm_d92kDO2sJcT4kAytEww-AAcO5XunQbhPryfjARUb1rdO7Gvx-gPnaHRrfkNPCJSsglBPn1YYIQr9UMvBpRr6g963-cLANdVpS9tKUQTUAMyC2ZmDNSNZBy24tZJQ=w1600-h1000-k-no
32,Seagrass by the beach,Restaurant,-8.703726300000001,115.2643899,4.4,161.0,https://lh5.googleusercontent.com/p/AF1QipO6MOySgMStjrbx7BhbjHi3di33mGNZuR0ZKwzn=w800-h500-k-no,https://lh5.googleusercontent.com/p/AF1QipO6MOySgMStjrbx7BhbjHi3di33mGNZuR0ZKwzn=w1600-h1000-k-no
33,Diwangkara Beach Hotel & Resort,Hotel,-8.6741534,115.2622227,4.1,197.0,//lh4.googleusercontent.com/proxy/_jlpCKDDfIiHlCOfU1i_xl6GNTTXMtE8IN-_tCjkI5Rd7UnHItgAZavyOegTDa9wGQ4qXcNB8uYJtlNzqDV5PMUT-nOjIngyaQhqHdpqPglQ8CrorwkQHNVbfUxKmNiIDWmYINzsjtWzhccqV4Fp7JVsIIwb_bs=w800-h500-k-no,//lh4.googleusercontent.com/proxy/_jlpCKDDfIiHlCOfU1i_xl6GNTTXMtE8IN-_tCjkI5Rd7UnHItgAZavyOegTDa9wGQ4qXcNB8uYJtlNzqDV5PMUT-nOjIngyaQhqHdpqPglQ8CrorwkQHNVbfUxKmNiIDWmYINzsjtWzhccqV4Fp7JVsIIwb_bs=w1600-h1000-k-no
34,Bali Beach Stuff Store,Clothing store,-8.6620158,115.1987162,5.0,3.0,https://lh5.googleusercontent.com/p/AF1QipOAvOtoyInPt8kGp6XIb8wgcvN8mfolYSlGJoDN=w800-h500-k-no,https://lh5.googleusercontent.com/p/AF1QipOAvOtoyInPt8kGp6XIb8wgcvN8mfolYSlGJoDN=w1600-h1000-k-no
35,Bali Garden Beach Umbrella,Garden furniture shop,-8.7064134,115.19631509999998,5.0,5.0,https://lh5.googleusercontent.com/p/AF1QipMbR9ArdRSa_Sm3VF8G8GW1gtENRM1b1fO1xAVF=w800-h500-k-no,https://lh5.googleusercontent.com/p/AF1QipMbR9ArdRSa_Sm3VF8G8GW1gtENRM1b1fO1xAVF=w1600-h1000-k-no
36,Semawang Beach Hotel,Hotel,-8.708628,115.2574274,3.8,57.0,https://lh5.googleusercontent.com/p/AF1QipN1br5IrDnrBQco8B0tecvguutvYvfhEOhZ67sh=w800-h500-k-no,https://lh5.googleusercontent.com/p/AF1QipN1br5IrDnrBQco8B0tecvguutvYvfhEOhZ67sh=w1600-h1000-k-no
37,Benayasa Beach Inn 1 Bali,Hotel,-8.6704466,115.21269579999999,,,,
38,Серф пляж Кута,Beach pavillion,-8.7119335,115.16714170000002,,,https://streetviewpixels-pa.googleapis.com/v1/thumbnail?panoid=0GTqvVmMysENy8AUUC7USQ&cb_client=search.gws-prod.gps&w=800&h=500&yaw=259.46112&pitch=0&thumbfov=100,https://streetviewpixels-pa.googleapis.com/v1/thumbnail?panoid=0GTqvVmMysENy8AUUC7USQ&cb_client=search.gws-prod.gps&w=1600&h=1000&yaw=259.46112&pitch=0&thumbfov=100
39,Dewata Bali Velozity Chapter (De'Beach),Non-profit organization,-8.6725251,115.2325799,,,https://streetviewpixels-pa.googleapis.com/v1/thumbnail?panoid=6wfM9mNTHUcZKorFjfBCYA&cb_client=search.gws-prod.gps&w=800&h=500&yaw=358.25067&pitch=0&thumbfov=100,https://streetviewpixels-pa.googleapis.com/v1/thumbnail?panoid=6wfM9mNTHUcZKorFjfBCYA&cb_client=search.gws-prod.gps&w=1600&h=1000&yaw=358.25067&pitch=0&thumbfov=100
40,Inna Sindhu Beach Hotel & Resort,Hotel,-8.6847617,115.2639374,4.4,1191.0,//lh3.googleusercontent.com/proxy/V4y3j7Hoi1wkxzHdtQ6xSUHL2WHzHnjAeQ9AC0xU02jPh1AjgI8unHcxOi7U_vnrXq4w7LjLu2X7KVOqxpnCxyQHbpxkjI0RXdDY2dR71T6U9721h4j7Cu6bKWJBk6afGl2kbX01IObxPusm9zPK_AowOJqF0tg=w800-h500-k-no,//lh3.googleusercontent.com/proxy/V4y3j7Hoi1wkxzHdtQ6xSUHL2WHzHnjAeQ9AC0xU02jPh1AjgI8unHcxOi7U_vnrXq4w7LjLu2X7KVOqxpnCxyQHbpxkjI0RXdDY2dR71T6U9721h4j7Cu6bKWJBk6afGl2kbX01IObxPusm9zPK_AowOJqF0tg=w1600-h1000-k-no
41,Hotel Bali Eka Beach Inn,Hotel,-8.672246300000001,115.26064620000001,4.5,6.0,https://lh5.googleusercontent.com/p/AF1QipN38_UCixU27UF5pfClaA9F1ltpVRAbFDLdF8Ea=w800-h500-k-no,https://lh5.googleusercontent.com/p/AF1QipN38_UCixU27UF5pfClaA9F1ltpVRAbFDLdF8Ea=w1600-h1000-k-no
42,Dawan Beach Inn,Hostel,-8.652714,115.21368319999999,,,https://streetviewpixels-pa.googleapis.com/v1/thumbnail?panoid=VrHpPI1Ctg2OxEBIHn8mag&cb_client=search.gws-prod.gps&w=800&h=500&yaw=179.11714&pitch=0&thumbfov=100,https://streetviewpixels-pa.googleapis.com/v1/thumbnail?panoid=VrHpPI1Ctg2OxEBIHn8mag&cb_client=search.gws-prod.gps&w=1600&h=1000&yaw=179.11714&pitch=0&thumbfov=100
43,Diwangkara Beach Hotel & Resort Sanur,Lodge,-8.6744515,115.2634281,4.9,7.0,https://lh5.googleusercontent.com/p/AF1QipMUlYXtHf7aikGuBEinNvbTEpT5x4VmRrS5s0TT=w800-h500-k-no,https://lh5.googleusercontent.com/p/AF1QipMUlYXtHf7aikGuBEinNvbTEpT5x4VmRrS5s0TT=w1600-h1000-k-no
44,Koolkost near Padang Galak Beach (Minimum Stay 30 Nights),Hotel,-8.650822199999999,115.25330220000001,4.5,11.0,https://lh5.googleusercontent.com/p/AF1QipM6-JsX6GiwVAEF3INAY-xvwQzFglaGcKI6z7pO=w800-h500-k-no,https://lh5.googleusercontent.com/p/AF1QipM6-JsX6GiwVAEF3INAY-xvwQzFglaGcKI6z7pO=w1600-h1000-k-no
45,La Playa Cafe,Restaurant,-8.7034494,115.26446100000001,4.5,830.0,https://lh5.googleusercontent.com/p/AF1QipPRq8JjpaA5qT1_1c9IWPOP6PzySD3wddQ1SE7e=w800-h500-k-no,https://lh5.googleusercontent.com/p/AF1QipPRq8JjpaA5qT1_1c9IWPOP6PzySD3wddQ1SE7e=w1600-h1000-k-no
46,Taman Agung Beach Inn Hotel,Hotel,-8.6963951,115.2627595,4.2,145.0,//lh6.googleusercontent.com/proxy/_3PjwiT-T9fEU3nGW5IB2-zkoZR7Whdq6b4RX60QEGkhOn003pdPUmWQFpM72LlGhT96v3oCC6qguZAqCeCR0mpSRLmRwOtMNTaFKa9EDAX1m4NpLF3LF1uH0NRoYqjRFPo-MokD4IucWJgxVKxHFJgBXcN5Wg=w800-h500-k-no,//lh6.googleusercontent.com/proxy/_3PjwiT-T9fEU3nGW5IB2-zkoZR7Whdq6b4RX60QEGkhOn003pdPUmWQFpM72LlGhT96v3oCC6qguZAqCeCR0mpSRLmRwOtMNTaFKa9EDAX1m4NpLF3LF1uH0NRoYqjRFPo-MokD4IucWJgxVKxHFJgBXcN5Wg=w1600-h1000-k-no
47,1688 Beach Bar,Bar,-8.679744699999999,115.2640877,3.1,14.0,https://lh5.googleusercontent.com/p/AF1QipNh6JK2gzWfigm8whecXsGB9P2W22bjlTjl7dlc=w800-h500-k-no,https://lh5.googleusercontent.com/p/AF1QipNh6JK2gzWfigm8whecXsGB9P2W22bjlTjl7dlc=w1600-h1000-k-no
48,Byrd House Bali,Restaurant,-8.6835376,115.26407079999998,4.2,453.0,https://lh5.googleusercontent.com/p/AF1QipPMMQ3WyzvNq_gl8J5uMYoHoZsWCutCSoJb2pn7=w800-h500-k-no,https://lh5.googleusercontent.com/p/AF1QipPMMQ3WyzvNq_gl8J5uMYoHoZsWCutCSoJb2pn7=w1600-h1000-k-no
49,Resort Wear Beach Wear Manufacture | #1 Resort wear Manufacturer,Wholesaler,-8.6978231,115.1954208,5.0,1.0,https://lh5.googleusercontent.com/p/AF1QipNllEz9UuPbGfTrrtqC7Um9GQVQuu8SpBdZagsR=w800-h500-k-no,https://lh5.googleusercontent.com/p/AF1QipNllEz9UuPbGfTrrtqC7Um9GQVQuu8SpBdZagsR=w1600-h1000-k-no
50,Bali Museum,Tourist attraction,-8.6570345,115.21896370000002,4.4,2052.0,//lh4.googleusercontent.com/proxy/WhKp40HxCE2NL_2SU2eW_RWSogmI7TTav2Eh5MxXR5V1AiGoDvTfPTa6LLvczZJbeqd_mY_13poN3YI3zUTxvrkmIdmhnzbQKGqvqHBYibhDUKWqkaGkVBSMlOEjIwAURAZYjt4ik09ZEcP6-f20fh9TL8B7Ag=w800-h500-k-no,//lh4.googleusercontent.com/proxy/WhKp40HxCE2NL_2SU2eW_RWSogmI7TTav2Eh5MxXR5V1AiGoDvTfPTa6LLvczZJbeqd_mY_13poN3YI3zUTxvrkmIdmhnzbQKGqvqHBYibhDUKWqkaGkVBSMlOEjIwAURAZYjt4ik09ZEcP6-f20fh9TL8B7Ag=w1600-h1000-k-no
51,Lemo Beach Cafe,Restaurant,-8.7038526,115.2643692,4.7,92.0,https://lh5.googleusercontent.com/p/AF1QipMxk82k_DpNWqKZgTdBfcZGyKe9bb-sw6nR1yah=w800-h500-k-no,https://lh5.googleusercontent.com/p/AF1QipMxk82k_DpNWqKZgTdBfcZGyKe9bb-sw6nR1yah=w1600-h1000-k-no
52,Kelingking Beach Nusa Penida,Tourist attraction,-8.750386500000001,115.47262179999998,4.9,2647.0,https://lh5.googleusercontent.com/p/AF1QipNmrKaBMfNR9dClgrCvGXd7IP3Cm3U6Z7_ry-TV=w800-h500-k-no,https://lh5.googleusercontent.com/p/AF1QipNmrKaBMfNR9dClgrCvGXd7IP3Cm3U6Z7_ry-TV=w1600-h1000-k-no
53,Warung Beach Breeze,Nasi goreng restaurant,-8.7076124,115.2562931,4.5,215.0,https://lh5.googleusercontent.com/p/AF1QipNybAj5rD4abmdYfy2eWmnmlJHvfI49MqEpPRjL=w800-h500-k-no,https://lh5.googleusercontent.com/p/AF1QipNybAj5rD4abmdYfy2eWmnmlJHvfI49MqEpPRjL=w1600-h1000-k-no
54,La Plancha Bali,Bar,-8.694508599999999,115.15977079999999,4.4,9897.0,https://lh5.googleusercontent.com/p/AF1QipM0fCQ6Ztd1n5YEduKAzNtoOS7BimvBQkg6eWro=w800-h500-k-no,https://lh5.googleusercontent.com/p/AF1QipM0fCQ6Ztd1n5YEduKAzNtoOS7BimvBQkg6eWro=w1600-h1000-k-no
55,Bamboo Bar & Lounge,Bar,-8.7106195,115.2567068,4.4,457.0,https://lh5.googleusercontent.com/p/AF1QipOmbS_1wpe19QcyGeTqXwopIIYbk2DODrBtImoF=w800-h500-k-no,https://lh5.googleusercontent.com/p/AF1QipOmbS_1wpe19QcyGeTqXwopIIYbk2DODrBtImoF=w1600-h1000-k-no
56,Baruna Beach Seafood Restaurant,Seafood restaurant,-8.6783896,115.26442800000001,4.3,588.0,https://lh5.googleusercontent.com/p/AF1QipP_3D3eY1tVbecChJvag_oJIPD8bUXXMX32MCTs=w800-h500-k-no,https://lh5.googleusercontent.com/p/AF1QipP_3D3eY1tVbecChJvag_oJIPD8bUXXMX32MCTs=w1600-h1000-k-no
57,Melasti Beach Resort & Spa,Hotel,-8.7026914,115.166486,3.9,510.0,//lh3.googleusercontent.com/proxy/q6R8bX0ZxbLpi3p-nwQ35AEZ0NEVxoQ9xCiiJRgSO59pW5F6rN4gCzc5fe8sTKwVGWGJtpGewDUTlohDFNwg1AGNas7_TvHgnWN9agyV4KlQ4NhnWgGutSrTjvQXTxSV_tZRI0hoHx736A97Y_m44alspevxHQ=w800-h500-k-no,//lh3.googleusercontent.com/proxy/q6R8bX0ZxbLpi3p-nwQ35AEZ0NEVxoQ9xCiiJRgSO59pW5F6rN4gCzc5fe8sTKwVGWGJtpGewDUTlohDFNwg1AGNas7_TvHgnWN9agyV4KlQ4NhnWgGutSrTjvQXTxSV_tZRI0hoHx736A97Y_m44alspevxHQ=w1600-h1000-k-no
58,Potato Head Beach Club,Bar,-8.6794353,115.14993419999999,4.6,13646.0,https://lh5.googleusercontent.com/p/AF1QipOC_pcE6ckCB3Jjvfi5C_crYm2Vq9Rb6U3yJxMo=w800-h500-k-no,https://lh5.googleusercontent.com/p/AF1QipOC_pcE6ckCB3Jjvfi5C_crYm2Vq9Rb6U3yJxMo=w1600-h1000-k-no
59,Atlas Beach Fest,Tourist attraction,-8.665157800000001,115.1396438,4.2,111.0,https://lh5.googleusercontent.com/p/AF1QipNbBiF-5cYFb3ZzSFmlxcbdV4dCoVMEB6toEKlc=w800-h500-k-no,https://lh5.googleusercontent.com/p/AF1QipNbBiF-5cYFb3ZzSFmlxcbdV4dCoVMEB6toEKlc=w1600-h1000-k-no
60,Bali Sarong | #1 Beach Sarong Pareo Cover up Beach wear Manufacture Wholesale,Garment exporter,-8.7010886,115.19462659999998,4.6,31.0,https://lh5.googleusercontent.com/p/AF1QipOYwUyOnDZQ3ATm5swwr1fwzOq2f7JlKZfLud04=w800-h500-k-no,https://lh5.googleusercontent.com/p/AF1QipOYwUyOnDZQ3ATm5swwr1fwzOq2f7JlKZfLud04=w1600-h1000-k-no
61,Melasti Beach Ungasan,Tourist attraction,-8.8477419,115.16067040000001,4.8,9616.0,https://lh5.googleusercontent.com/p/AF1QipOgcMvimVFISQr5AzQKKopKlHcWVA78BfG5p7o=w800-h500-k-no,https://lh5.googleusercontent.com/p/AF1QipOgcMvimVFISQr5AzQKKopKlHcWVA78BfG5p7o=w1600-h1000-k-no
62,Lembongan Beach Restaurant,Restaurant,-8.6985969,115.26566559999999,3.8,35.0,https://lh5.googleusercontent.com/p/AF1QipOA3ngOaH6nd4rkknVvfMDsTlT4HiZSlkJfes7x=w800-h500-k-no,https://lh5.googleusercontent.com/p/AF1QipOA3ngOaH6nd4rkknVvfMDsTlT4HiZSlkJfes7x=w1600-h1000-k-no
63,Noku Beach House,Villa,-8.6908984,115.157784,4.6,112.0,//lh3.googleusercontent.com/proxy/QzTrG25no29_-zGElx68x8gEcTR2_iMLDBcybiUeHqxRSOEmbKaithLEmGjDJpamgWn82k33EqNGWd8nhHc9YmDYDpyY4F9MMJLOAxXnodtHaFuxD2raykzcaiz0msICknMyM925um6M-xmdOig7jXJb25B5aw=w800-h500-k-no,//lh3.googleusercontent.com/proxy/QzTrG25no29_-zGElx68x8gEcTR2_iMLDBcybiUeHqxRSOEmbKaithLEmGjDJpamgWn82k33EqNGWd8nhHc9YmDYDpyY4F9MMJLOAxXnodtHaFuxD2raykzcaiz0msICknMyM925um6M-xmdOig7jXJb25B5aw=w1600-h1000-k-no
64,Bali Sun,Cafe,-8.6980649,115.2629726,4.5,2.0,https://lh5.googleusercontent.com/p/AF1QipMjZsYEkVltTEBtbcVwtMC4PhIZWUUevXOK1ewg=w800-h500-k-no,https://lh5.googleusercontent.com/p/AF1QipMjZsYEkVltTEBtbcVwtMC4PhIZWUUevXOK1ewg=w1600-h1000-k-no
65,Atlas beach fest,Tourist attraction,-8.6650706,115.1381257,5.0,1.0,,
66,Palm Beach Hotel Bali,Hotel,-8.7345906,115.16429709999998,3.9,1125.0,//lh3.googleusercontent.com/proxy/XEbyPClLfTx8z8B9LW5bW1NuEAZDfQXyS-Uvs-THdaFrBzEnhbdJPGRkjH-478H92Azgx9eIKjHFbnLbQKcLTlsgdAbJB_GjTrxM8jzc69wD75Ugow79hpC6tzu13cnBmWfgxTLJlMpnCi1AUaA7zAwEqLjnRLs=w800-h500-k-no,//lh3.googleusercontent.com/proxy/XEbyPClLfTx8z8B9LW5bW1NuEAZDfQXyS-Uvs-THdaFrBzEnhbdJPGRkjH-478H92Azgx9eIKjHFbnLbQKcLTlsgdAbJB_GjTrxM8jzc69wD75Ugow79hpC6tzu13cnBmWfgxTLJlMpnCi1AUaA7zAwEqLjnRLs=w1600-h1000-k-no
67,Desa Potato Head,Cultural center,-8.679217300000001,115.1500396,4.7,2090.0,https://lh5.googleusercontent.com/p/AF1QipNP5Ph-QX_9Ibf451egS2rVYPd5b5dyJJ3Zh7E_=w800-h500-k-no,https://lh5.googleusercontent.com/p/AF1QipNP5Ph-QX_9Ibf451egS2rVYPd5b5dyJJ3Zh7E_=w1600-h1000-k-no
68,The Sand Beach Bar & Restaurant,Bar & grill,-8.6968531,115.16123,3.9,341.0,https://lh5.googleusercontent.com/p/AF1QipPJjjlBxr1-Ir1Y-8Rf4D5bAbMMWK6WqtzXHpxZ=w800-h500-k-no,https://lh5.googleusercontent.com/p/AF1QipPJjjlBxr1-Ir1Y-8Rf4D5bAbMMWK6WqtzXHpxZ=w1600-h1000-k-no
69,Lada Restaurant,Indonesian restaurant,-8.709631199999999,115.2564159,4.8,10.0,https://lh5.googleusercontent.com/p/AF1QipNT8eOM-n4-dcsnF0y5AOEqvd8n6BmNWQ0f0mmq=w800-h500-k-no,https://lh5.googleusercontent.com/p/AF1QipNT8eOM-n4-dcsnF0y5AOEqvd8n6BmNWQ0f0mmq=w1600-h1000-k-no
70,Waterblow,Park,-8.803856699999999,115.2398639,4.4,8600.0,https://lh5.googleusercontent.com/p/AF1QipNw5DdPKrJ3CDKLWq_0A8x1JuJGg0fJiWO997A6=w800-h500-k-no,https://lh5.googleusercontent.com/p/AF1QipNw5DdPKrJ3CDKLWq_0A8x1JuJGg0fJiWO997A6=w1600-h1000-k-no
71,Brekele Berawa Beach house,Hostel,-8.6659248,115.14000220000001,4.4,30.0,https://lh5.googleusercontent.com/p/AF1QipMLZHNBEv-bnLbKVoqGe6P2v4SrMsZibzpYlR0d=w800-h500-k-no,https://lh5.googleusercontent.com/p/AF1QipMLZHNBEv-bnLbKVoqGe6P2v4SrMsZibzpYlR0d=w1600-h1000-k-no
72,NIDA Rooms Thamrin Sanur Beach at Hotel Intan Sari,Hotel,-8.658186800000001,115.20971170000001,4.0,1.0,https://streetviewpixels-pa.googleapis.com/v1/thumbnail?panoid=WYOPlvVGh5tcowU0MQehtQ&cb_client=search.gws-prod.gps&w=800&h=500&yaw=267.16504&pitch=0&thumbfov=100,https://streetviewpixels-pa.googleapis.com/v1/thumbnail?panoid=WYOPlvVGh5tcowU0MQehtQ&cb_client=search.gws-prod.gps&w=1600&h=1000&yaw=267.16504&pitch=0&thumbfov=100
73,Finns Beach Club,Restaurant,-8.666765199999999,115.13939840000002,4.5,13154.0,https://lh5.googleusercontent.com/p/AF1QipMr7nuBTAVzccICSOtbWdN10luC4ScXIDLfgk8W=w800-h500-k-no,https://lh5.googleusercontent.com/p/AF1QipMr7nuBTAVzccICSOtbWdN10luC4ScXIDLfgk8W=w1600-h1000-k-no
74,AbivillA Seminyak Beach,Villa,-8.6945538,115.1631525,5.0,1.0,https://lh5.googleusercontent.com/p/AF1QipMg-Xcls-sB4Lptd_RwUvA_Q52xXNWPkwdlLqg=w800-h500-k-no,https://lh5.googleusercontent.com/p/AF1QipMg-Xcls-sB4Lptd_RwUvA_Q52xXNWPkwdlLqg=w1600-h1000-k-no
75,La Brisa Bali,Restaurant,-8.654217800000001,115.1250199,4.6,8124.0,https://lh5.googleusercontent.com/p/AF1QipMWgP4sqXSmh8dR7TrWpFPzqJPENSAAA4_vosNR=w800-h500-k-no,https://lh5.googleusercontent.com/p/AF1QipMZTGGD2EG9f4aXr7eP4MFf1OlQB6jNoob-EXjb=w1600-h1000-k-no
76,Glory Fast Cruise Sanur Beach,Corporate office,-8.6733063,115.2630658,4.5,16.0,https://lh5.googleusercontent.com/p/AF1QipOBvnsmn6ev1QAgZH4f-06Vf4zqskssrCToU2fW=w800-h500-k-no,https://lh5.googleusercontent.com/p/AF1QipOBvnsmn6ev1QAgZH4f-06Vf4zqskssrCToU2fW=w1600-h1000-k-no
77,Citadines Berawa Beach Bali,Hotel,-8.6618118,115.1365928,4.5,268.0,https://lh5.googleusercontent.com/p/AF1QipP0B-v4HRX5pODJ6Gwmwhx6AJHwZmtx9wAJumf0=w800-h500-k-no,https://lh5.googleusercontent.com/p/AF1QipP0B-v4HRX5pODJ6Gwmwhx6AJHwZmtx9wAJumf0=w1600-h1000-k-no
78,PT Lovina Beach Brewery (Stark Craft Beer Bali),Corporate office,-8.6834186,115.21988470000001,4.5,10.0,https://lh5.googleusercontent.com/p/AF1QipOnjwOb3IS9of-83tp89FcU7Xv4d6ip9XOBPnYK=w800-h500-k-no,https://lh5.googleusercontent.com/p/AF1QipOnjwOb3IS9of-83tp89FcU7Xv4d6ip9XOBPnYK=w1600-h1000-k-no
79,The Nest Beachside Spa,Day spa,-8.704916800000001,115.263958,4.8,226.0,https://lh5.googleusercontent.com/p/AF1QipOO9nTY-VUkfxETCRcSk8ZLxjGfKadv9fbOEBTC=w800-h500-k-no,https://lh5.googleusercontent.com/p/AF1QipOO9nTY-VUkfxETCRcSk8ZLxjGfKadv9fbOEBTC=w1600-h1000-k-no
80,Power Of Now Oasis,Yoga studio,-8.7108906,115.2549206,4.7,83.0,https://lh5.googleusercontent.com/p/AF1QipMInN0W0V1bNBu_OzBPuHaZu-MXgA4bF4nNkt3h=w800-h500-k-no,https://lh5.googleusercontent.com/p/AF1QipMInN0W0V1bNBu_OzBPuHaZu-MXgA4bF4nNkt3h=w1600-h1000-k-no
81,Villa Cemara,Villa,-8.709242399999999,115.25926940000001,4.7,19.0,//lh4.googleusercontent.com/proxy/8RMsb-xTFO1XZ7dNLXAQyDqgMLH7nLFKuCLps82HeKh_k0cPNbxRoL1CXlwks5rTuc-aVFCSwL1_6MxQ2HWFTvGNpq6O-arVBWso4gcgurmL9Gkwx4HKf3c1OgxVkNq9I0Bo0TLYYqTkHwxaDcJvN3RxJE-K3kQ=w800-h500-k-no,//lh4.googleusercontent.com/proxy/8RMsb-xTFO1XZ7dNLXAQyDqgMLH7nLFKuCLps82HeKh_k0cPNbxRoL1CXlwks5rTuc-aVFCSwL1_6MxQ2HWFTvGNpq6O-arVBWso4gcgurmL9Gkwx4HKf3c1OgxVkNq9I0Bo0TLYYqTkHwxaDcJvN3RxJE-K3kQ=w1600-h1000-k-no
82,Maruti Group Fast Boat - Sanur Beach Port,Ferry service,-8.672814500000001,115.26282250000001,4.0,150.0,https://lh5.googleusercontent.com/p/AF1QipO9mpOmD_PqVu6J40Kh1xtPIKddnD8zRG_7xBd0=w800-h500-k-no,https://lh5.googleusercontent.com/p/AF1QipO9mpOmD_PqVu6J40Kh1xtPIKddnD8zRG_7xBd0=w1600-h1000-k-no
83,Hotel Alit's Beach,Hotel,-8.6736489,115.2625131,3.9,120.0,https://lh5.googleusercontent.com/p/AF1QipMakvGSrr1KyKWC0vy4GV-tOfyMwh6TNjKliTdn=w800-h500-k-no,https://lh5.googleusercontent.com/p/AF1QipMakvGSrr1KyKWC0vy4GV-tOfyMwh6TNjKliTdn=w1600-h1000-k-no
84,Vila Shanti,Hotel,-8.690463000000001,115.265093,4.2,187.0,//lh5.googleusercontent.com/proxy/GpzTEZVtgzkBMTXWET7de_AWsghANVx4cL5vPRp9yilkeE6LxO_lnGL8jrjvkTzNRwlapuTJFWaaB2ebiFg4lXXEtc2bBfmXZEBz5PuIO9kpQCUCZmRMO5n4cs9ZW570KUIKlrfxJixQFi3EL_GwSDjeXRkwdw=w800-h500-k-no,//lh5.googleusercontent.com/proxy/GpzTEZVtgzkBMTXWET7de_AWsghANVx4cL5vPRp9yilkeE6LxO_lnGL8jrjvkTzNRwlapuTJFWaaB2ebiFg4lXXEtc2bBfmXZEBz5PuIO9kpQCUCZmRMO5n4cs9ZW570KUIKlrfxJixQFi3EL_GwSDjeXRkwdw=w1600-h1000-k-no
85,Tandjung Sari Hotel,Resort hotel,-8.6888561,115.26540370000001,4.7,565.0,https://lh5.googleusercontent.com/p/AF1QipPNzXE_VteyDOAwSWffXiPW3X4X01ZLwzxRgLcE=w800-h500-k-no,https://lh5.googleusercontent.com/p/AF1QipPNzXE_VteyDOAwSWffXiPW3X4X01ZLwzxRgLcE=w1600-h1000-k-no
86,Klumpu Bali Resort,Resort hotel,-8.697974199999999,115.2612838,4.8,229.0,https://lh5.googleusercontent.com/p/AF1QipNx_FWpzLCsbEOmFV7r410I0GaMih5P1K9RwMgS=w800-h500-k-no,https://lh5.googleusercontent.com/p/AF1QipNx_FWpzLCsbEOmFV7r410I0GaMih5P1K9RwMgS=w1600-h1000-k-no
87,Kuta Beach Hotel,Hotel,-8.7127594,115.1686592,4.2,1940.0,//lh6.googleusercontent.com/proxy/btRt-q4ioXfFarPskHO5g-qByVCQq0GJi9O4t9k7TjS4DALAcriORNKfj6rxrJVfbWAZzXQGneoNr_SHo83dUdzxeRVnYXattflwruJBDm8yWihBg80cGz2KYn-JaDBBVRL8x58YhwcVynfSckYsQvDksaZQ6-I=w800-h500-k-no,//lh6.googleusercontent.com/proxy/btRt-q4ioXfFarPskHO5g-qByVCQq0GJi9O4t9k7TjS4DALAcriORNKfj6rxrJVfbWAZzXQGneoNr_SHo83dUdzxeRVnYXattflwruJBDm8yWihBg80cGz2KYn-JaDBBVRL8x58YhwcVynfSckYsQvDksaZQ6-I=w1600-h1000-k-no
88,Fourteen Roses Beach Hotel,Hotel,-8.7095901,115.16851969999999,3.7,230.0,https://lh5.googleusercontent.com/p/AF1QipPp0Nknt8lmRxEAjtVb6b4eXO8IKAqwc24Mb2X1=w800-h500-k-no,https://lh5.googleusercontent.com/p/AF1QipPp0Nknt8lmRxEAjtVb6b4eXO8IKAqwc24Mb2X1=w1600-h1000-k-no
89,Harmony Beach Suite,Hotel,-8.6764452,115.14847659999998,3.8,101.0,https://lh5.googleusercontent.com/p/AF1QipMRktFoz0M06wkOxcR-AUX55stEmEdmmFNQrmdy=w800-h500-k-no,https://lh5.googleusercontent.com/p/AF1QipMRktFoz0M06wkOxcR-AUX55stEmEdmmFNQrmdy=w1600-h1000-k-no
90,"Virgin Beach, Karangasem, Bali",Beach,-8.501408300000001,115.6105404,4.5,2407.0,https://lh5.googleusercontent.com/p/AF1QipMR0rw9EWSQVRv9UHaxgyTYAed7ddRGojZ6i3j0=w800-h500-k-no,https://lh5.googleusercontent.com/p/AF1QipOzeAYv4TVn8ADugNlQg_NfxaCt7sUEWnOadnaH=w1600-h1000-k-no
91,Pantai Lepang,Beach,-8.5745833,115.3844642,4.3,163.0,https://lh5.googleusercontent.com/p/AF1QipOGID7yPd2S3LLIBt3MMbMZITUcHtKJtL3_ioPS=w800-h500-k-no,https://lh5.googleusercontent.com/p/AF1QipOGID7yPd2S3LLIBt3MMbMZITUcHtKJtL3_ioPS=w1600-h1000-k-no
92,secret beach,Beach,-8.681818,115.437546,4.5,69.0,https://lh5.googleusercontent.com/p/AF1QipOJr4_wmsbFgTDBl8PH8mQJpCAyUxg7AcUF6o5o=w800-h500-k-no,https://lh5.googleusercontent.com/p/AF1QipOJr4_wmsbFgTDBl8PH8mQJpCAyUxg7AcUF6o5o=w1600-h1000-k-no
93,Epf,Shopping mall,-8.1873543,114.96530449999999,,,https://lh5.googleusercontent.com/p/AF1QipPoLv79qgYFG4zYaNNzs-juSj3rUex4-r9TRGS6=w800-h500-k-no,https://lh5.googleusercontent.com/p/AF1QipPoLv79qgYFG4zYaNNzs-juSj3rUex4-r9TRGS6=w1600-h1000-k-no
94,EDYCELL,Shopping mall,-8.211488000000001,115.02608970000001,,,https://streetviewpixels-pa.googleapis.com/v1/thumbnail?panoid=hy0jQZF77v1h1-PlKZ2dyA&cb_client=search.gws-prod.gps&w=800&h=500&yaw=211.47598&pitch=0&thumbfov=100,https://streetviewpixels-pa.googleapis.com/v1/thumbnail?panoid=hy0jQZF77v1h1-PlKZ2dyA&cb_client=search.gws-prod.gps&w=1600&h=1000&yaw=211.47598&pitch=0&thumbfov=100
95,Bengkel & Loket Pulsa,Shopping mall,-8.199271000000001,114.96952830000001,3.0,1.0,https://streetviewpixels-pa.googleapis.com/v1/thumbnail?panoid=nEUhio7QgVDoWhtmjJEckQ&cb_client=search.gws-prod.gps&w=800&h=500&yaw=287.27042&pitch=0&thumbfov=100,https://streetviewpixels-pa.googleapis.com/v1/thumbnail?panoid=nEUhio7QgVDoWhtmjJEckQ&cb_client=search.gws-prod.gps&w=1600&h=1000&yaw=287.27042&pitch=0&thumbfov=100
96,Juta avocado,Shopping mall,-8.2914905,115.06483440000001,,,https://lh5.googleusercontent.com/p/AF1QipMefd2_oaQ2hWHm5rOEkv62A9xZJqogoK75cZ97=w800-h500-k-no,https://lh5.googleusercontent.com/p/AF1QipMefd2_oaQ2hWHm5rOEkv62A9xZJqogoK75cZ97=w1600-h1000-k-no
97,GUDANG ANGGUR BUK SIMPEN,Shopping mall,-8.191642,114.96620940000001,,,https://lh5.googleusercontent.com/p/AF1QipMrW-QAV0KmGzTqiLNvulMYbEs5FzoKMPdD4yK8=w800-h500-k-no,https://lh5.googleusercontent.com/p/AF1QipMrW-QAV0KmGzTqiLNvulMYbEs5FzoKMPdD4yK8=w1600-h1000-k-no
98,Warung dendy,Shopping mall,-8.216126299999999,114.99321429999999,,,https://streetviewpixels-pa.googleapis.com/v1/thumbnail?panoid=Cz7JSLMovwyjm-q-HOKPCA&cb_client=search.gws-prod.gps&w=800&h=500&yaw=51.11153&pitch=0&thumbfov=100,https://streetviewpixels-pa.googleapis.com/v1/thumbnail?panoid=Cz7JSLMovwyjm-q-HOKPCA&cb_client=search.gws-prod.gps&w=1600&h=1000&yaw=51.11153&pitch=0&thumbfov=100
99,Antaboga cemerlang,Shopping mall,-8.1971438,114.96717240000001,4.0,1.0,https://lh5.googleusercontent.com/p/AF1QipM8xOwK_lV84A7vuT456ICZ-5UNMioGL_oaTL0u=w800-h500-k-no,https://lh5.googleusercontent.com/p/AF1QipM8xOwK_lV84A7vuT456ICZ-5UNMioGL_oaTL0u=w1600-h1000-k-no
100,warung merta sari,Shopping mall,-8.220603200000001,115.01337,1.0,1.0,,
101,Ichi Store,Shopping mall,-8.1754208,115.01763570000001,5.0,4.0,https://lh5.googleusercontent.com/p/AF1QipMH09I5GsIlzI7S8XnqWMfB9p_CBEZPY8O4LB4Y=w800-h500-k-no,https://lh5.googleusercontent.com/p/AF1QipMH09I5GsIlzI7S8XnqWMfB9p_CBEZPY8O4LB4Y=w1600-h1000-k-no
102,Durin Montong Bali,Shopping mall,-8.1881836,114.97224709999999,,,https://streetviewpixels-pa.googleapis.com/v1/thumbnail?panoid=e6an10aEc2OHISBl82gB4g&cb_client=search.gws-prod.gps&w=800&h=500&yaw=182.08684&pitch=0&thumbfov=100,https://streetviewpixels-pa.googleapis.com/v1/thumbnail?panoid=e6an10aEc2OHISBl82gB4g&cb_client=search.gws-prod.gps&w=1600&h=1000&yaw=182.08684&pitch=0&thumbfov=100
103,JIEVEN CELL,Shopping mall,-8.2375022,114.98734809999999,5.0,2.0,https://lh5.googleusercontent.com/p/AF1QipNOmhlcpt2X-ywMuuCgTTYOnTzbiuCsKq8iCjLP=w800-h500-k-no,https://lh5.googleusercontent.com/p/AF1QipNOmhlcpt2X-ywMuuCgTTYOnTzbiuCsKq8iCjLP=w1600-h1000-k-no
104,EVIANA KEBAYA & MOTOR,Shopping mall,-8.2803784,115.0547655,5.0,5.0,https://lh5.googleusercontent.com/p/AF1QipM1mOS62IFKfXvR5nWk37_YIPS7jEEHre_uhMsu=w800-h500-k-no,https://lh5.googleusercontent.com/p/AF1QipM1mOS62IFKfXvR5nWk37_YIPS7jEEHre_uhMsu=w1600-h1000-k-no
105,Arykeben,Shopping mall,-8.1885934,115.02026140000001,2.0,1.0,,
106,warung ibu mariam,Shopping mall,-8.1781905,115.00485559999998,,,https://streetviewpixels-pa.googleapis.com/v1/thumbnail?panoid=-IuQO15Sw3NipdR-8QZCyQ&cb_client=search.gws-prod.gps&w=800&h=500&yaw=294.8173&pitch=0&thumbfov=100,https://streetviewpixels-pa.googleapis.com/v1/thumbnail?panoid=-IuQO15Sw3NipdR-8QZCyQ&cb_client=search.gws-prod.gps&w=1600&h=1000&yaw=294.8173&pitch=0&thumbfov=100
107,Golden Lif,Shopping mall,-8.2457081,115.09929040000002,4.5,2.0,https://lh5.googleusercontent.com/p/AF1QipM5UwE9bWMphw5WmbeyQfViUhSBteIZDUMJT7Ql=w800-h500-k-no,https://lh5.googleusercontent.com/p/AF1QipM5UwE9bWMphw5WmbeyQfViUhSBteIZDUMJT7Ql=w1600-h1000-k-no
108,Dodix Orchid,Shopping mall,-8.2102482,114.9730155,5.0,1.0,https://lh5.googleusercontent.com/p/AF1QipOAEEqteAt1YOX2yvQ1GAlewb7rRYDgxlM7Zcnc=w800-h500-k-no,https://lh5.googleusercontent.com/p/AF1QipOAEEqteAt1YOX2yvQ1GAlewb7rRYDgxlM7Zcnc=w1600-h1000-k-no
109,BUMDesa Bina Usaha Mandiri,Shopping mall,-8.1943835,114.9710939,,,https://streetviewpixels-pa.googleapis.com/v1/thumbnail?panoid=S0F4xux9BJkWS7zXBhMNBA&cb_client=search.gws-prod.gps&w=800&h=500&yaw=188.49797&pitch=0&thumbfov=100,https://streetviewpixels-pa.googleapis.com/v1/thumbnail?panoid=S0F4xux9BJkWS7zXBhMNBA&cb_client=search.gws-prod.gps&w=1600&h=1000&yaw=188.49797&pitch=0&thumbfov=100
110,Warung Heri,Shopping mall,-8.2070096,115.0263219,5.0,1.0,,
111,Wanako Cell,Shopping mall,-8.2164471,114.9949065,,,https://lh5.googleusercontent.com/p/AF1QipOV1Wi5RPSRDbkvze0Im-lmsxMepPTYoXdurmCx=w800-h500-k-no,https://lh5.googleusercontent.com/p/AF1QipOV1Wi5RPSRDbkvze0Im-lmsxMepPTYoXdurmCx=w1600-h1000-k-no
112,Warung buk ikar,Shopping mall,-8.2161372,114.99359799999999,,,https://streetviewpixels-pa.googleapis.com/v1/thumbnail?panoid=OBydua-w8duu_ik2ZIcYWw&cb_client=search.gws-prod.gps&w=800&h=500&yaw=339.86563&pitch=0&thumbfov=100,https://streetviewpixels-pa.googleapis.com/v1/thumbnail?panoid=OBydua-w8duu_ik2ZIcYWw&cb_client=search.gws-prod.gps&w=1600&h=1000&yaw=339.86563&pitch=0&thumbfov=100
113,Mulia Store Lovina,Shopping mall,-8.1663391,115.01640330000001,,,https://streetviewpixels-pa.googleapis.com/v1/thumbnail?panoid=9C8tMt7cMAMFcVPWs-8aQA&cb_client=search.gws-prod.gps&w=800&h=500&yaw=171.47945&pitch=0&thumbfov=100,https://streetviewpixels-pa.googleapis.com/v1/thumbnail?panoid=9C8tMt7cMAMFcVPWs-8aQA&cb_client=search.gws-prod.gps&w=1600&h=1000&yaw=171.47945&pitch=0&thumbfov=100
114,Warung tegar roestika,Shopping mall,-8.2799772,115.053455,5.0,3.0,https://lh5.googleusercontent.com/p/AF1QipMkNTfy3Jxy_Xa7NvK_Z-lXtpnI002kM8MRe-Iq=w800-h500-k-no,https://lh5.googleusercontent.com/p/AF1QipMkNTfy3Jxy_Xa7NvK_Z-lXtpnI002kM8MRe-Iq=w1600-h1000-k-no
115,Warung Beni Tigawasa,Shopping mall,-8.1853496,115.0262315,4.7,12.0,https://lh5.googleusercontent.com/p/AF1QipMT_qdvIf_BHyd00ohEXXMHJqOT6pDBpGvlN6g6=w800-h500-k-no,https://lh5.googleusercontent.com/p/AF1QipMT_qdvIf_BHyd00ohEXXMHJqOT6pDBpGvlN6g6=w1600-h1000-k-no
116,YuliaMart,Shopping mall,-8.2590383,115.01720990000001,5.0,2.0,https://lh5.googleusercontent.com/p/AF1QipONte2NPhndtyzN1BJHf5HuYAAFefacON1ksaH1=w800-h500-k-no,https://lh5.googleusercontent.com/p/AF1QipONte2NPhndtyzN1BJHf5HuYAAFefacON1ksaH1=w1600-h1000-k-no
117,Jaya Olshop,Shopping mall,-8.2027068,114.97325719999999,1.0,1.0,https://streetviewpixels-pa.googleapis.com/v1/thumbnail?panoid=zlNUsl9_uYCws2vtRRpxlw&cb_client=search.gws-prod.gps&w=800&h=500&yaw=230.22682&pitch=0&thumbfov=100,https://lh5.googleusercontent.com/p/AF1QipNPCHbO4d-RsNo5pTgfIvG72OpVqIUDP_N3Nns9=w1600-h1000-k-no
118,Toko Restu Ibu Accesories,Shopping mall,-8.1656634,115.01828259999999,,,https://lh5.googleusercontent.com/p/AF1QipOJdsBqxxIwpiPy3xVxwb56VbyLmCs14oMFjj8R=w800-h500-k-no,https://lh5.googleusercontent.com/p/AF1QipOJdsBqxxIwpiPy3xVxwb56VbyLmCs14oMFjj8R=w1600-h1000-k-no
119,ketut darmawan,Shopping mall,-8.183021499999999,114.987831,,,https://streetviewpixels-pa.googleapis.com/v1/thumbnail?panoid=qfgmFIEXwvjZZFKSJ2hhfQ&cb_client=search.gws-prod.gps&w=800&h=500&yaw=42.603317&pitch=0&thumbfov=100,https://streetviewpixels-pa.googleapis.com/v1/thumbnail?panoid=qfgmFIEXwvjZZFKSJ2hhfQ&cb_client=search.gws-prod.gps&w=1600&h=1000&yaw=42.603317&pitch=0&thumbfov=100
120,Glazystore Dencarik,Shopping mall,-8.1876036,114.97393590000001,,,https://streetviewpixels-pa.googleapis.com/v1/thumbnail?panoid=_b6XaBuOBt-LSaZZnx5c8Q&cb_client=search.gws-prod.gps&w=800&h=500&yaw=153.21518&pitch=0&thumbfov=100,https://streetviewpixels-pa.googleapis.com/v1/thumbnail?panoid=_b6XaBuOBt-LSaZZnx5c8Q&cb_client=search.gws-prod.gps&w=1600&h=1000&yaw=153.21518&pitch=0&thumbfov=100
121,Ud K,Shopping mall,-8.262248,115.0853788,4.0,2.0,https://lh5.googleusercontent.com/p/AF1QipOCqehSyQn8WGfa-bfWSgRMSe8ao4nTEzd_ceit=w800-h500-k-no,https://lh5.googleusercontent.com/p/AF1QipOCqehSyQn8WGfa-bfWSgRMSe8ao4nTEzd_ceit=w1600-h1000-k-no
122,Toko Maha Grosir,Shopping mall,-8.2593657,115.022079,3.7,3.0,https://lh5.googleusercontent.com/p/AF1QipNEKIeIJvLXXBnZpBg36NYMWwLf8n3cuhnEV05S=w800-h500-k-no,https://lh5.googleusercontent.com/p/AF1QipNEKIeIJvLXXBnZpBg36NYMWwLf8n3cuhnEV05S=w1600-h1000-k-no
123,KECAK SHOP LOVINA,Shopping mall,-8.1623848,115.0260384,5.0,7.0,https://lh5.googleusercontent.com/p/AF1QipOdHgXoiGT4zcu_oikiP8lT7ETEmD9mZOEChUv4=w800-h500-k-no,https://lh5.googleusercontent.com/p/AF1QipOdHgXoiGT4zcu_oikiP8lT7ETEmD9mZOEChUv4=w1600-h1000-k-no
124,Toko Purnama Gesing,Shopping mall,-8.273540299999999,115.0513994,4.4,5.0,https://lh5.googleusercontent.com/p/AF1QipPad6JXbYKxWci-KFKFJez615vcIDgb7AAfx-MR=w800-h500-k-no,https://lh5.googleusercontent.com/p/AF1QipPad6JXbYKxWci-KFKFJez615vcIDgb7AAfx-MR=w1600-h1000-k-no
125,Toko Dayu Oci,Shopping mall,-8.2019653,114.962826,2.0,1.0,https://lh5.googleusercontent.com/p/AF1QipNFczQr13xFGqwJFA_hxH6zFdOC4srQlMBMwXgZ=w800-h500-k-no,https://lh5.googleusercontent.com/p/AF1QipNFczQr13xFGqwJFA_hxH6zFdOC4srQlMBMwXgZ=w1600-h1000-k-no
126,PT Artaboga Cemerlang Depo Singaraja,Shopping mall,-8.172416400000001,115.00748840000001,4.6,5.0,https://streetviewpixels-pa.googleapis.com/v1/thumbnail?panoid=H-DoeX9utIXaFI4kFg950w&cb_client=search.gws-prod.gps&w=800&h=500&yaw=118.41033&pitch=0&thumbfov=100,https://streetviewpixels-pa.googleapis.com/v1/thumbnail?panoid=H-DoeX9utIXaFI4kFg950w&cb_client=search.gws-prod.gps&w=1600&h=1000&yaw=118.41033&pitch=0&thumbfov=100
127,The Balilua House Factory,Shopping mall,-8.1824193,114.98782369999999,,,https://lh5.googleusercontent.com/p/AF1QipObud9F9EGLw7QhmSOpq_wC2RNqYu74oWdBoQnj=w800-h500-k-no,https://lh5.googleusercontent.com/p/AF1QipObud9F9EGLw7QhmSOpq_wC2RNqYu74oWdBoQnj=w1600-h1000-k-no
128,Seririt Market,Shopping mall,-8.166746799999999,115.0093045,3.8,22.0,https://lh5.googleusercontent.com/p/AF1QipNlmZfjyjGm7u49ocVMAvQVnWLN0vqf57BDUMpK=w800-h500-k-no,https://lh5.googleusercontent.com/p/AF1QipNlmZfjyjGm7u49ocVMAvQVnWLN0vqf57BDUMpK=w1600-h1000-k-no
129,warung ayu,Shopping mall,-8.2121832,114.9527746,,,https://streetviewpixels-pa.googleapis.com/v1/thumbnail?panoid=fYdfmJJkIwLS1KAMfmCI-w&cb_client=search.gws-prod.gps&w=800&h=500&yaw=97.33109&pitch=0&thumbfov=100,https://streetviewpixels-pa.googleapis.com/v1/thumbnail?panoid=fYdfmJJkIwLS1KAMfmCI-w&cb_client=search.gws-prod.gps&w=1600&h=1000&yaw=97.33109&pitch=0&thumbfov=100
130,Merta Jaya Accesoris,Shopping mall,-8.2056068,114.9219311,4.0,1.0,https://lh5.googleusercontent.com/p/AF1QipP7Qzf-xiLiGheJdbvEnV6uPe-tIx_bx66GPFVi=w800-h500-k-no,https://lh5.googleusercontent.com/p/AF1QipP7Qzf-xiLiGheJdbvEnV6uPe-tIx_bx66GPFVi=w1600-h1000-k-no
131,BHU GARAGE DISTRO & VAPE STORE 2,Shopping mall,-8.1921178,114.94893529999999,5.0,1.0,https://lh5.googleusercontent.com/p/AF1QipNB-ZSpaaCpO_BiOPnqgxUihUEE321xQl5z1Lz5=w800-h500-k-no,https://lh5.googleusercontent.com/p/AF1QipNB-ZSpaaCpO_BiOPnqgxUihUEE321xQl5z1Lz5=w1600-h1000-k-no
132,BUMDEsa Sulanyah,Shopping mall,-8.195634599999998,114.94130430000001,,,,
133,Pasar Senggol Lovina,Shopping mall,-8.1611734,115.02953829999998,5.0,1.0,https://streetviewpixels-pa.googleapis.com/v1/thumbnail?panoid=BThncr2Ri8q540pXJm19sQ&cb_client=search.gws-prod.gps&w=800&h=500&yaw=191.64325&pitch=0&thumbfov=100,https://lh5.googleusercontent.com/p/AF1QipPCldKWBILLB4stHNKWB3sdCk0IskgHYFH9VsaQ=w1600-h1000-k-no
134,Pasar tradisional desa Banyuatis,Shopping mall,-8.2599638,115.02854690000001,3.9,46.0,https://lh5.googleusercontent.com/p/AF1QipNXpveO8yiU1pjoW3GLumZktER8jRdZdkx-Z2eM=w800-h500-k-no,https://lh5.googleusercontent.com/p/AF1QipNXpveO8yiU1pjoW3GLumZktER8jRdZdkx-Z2eM=w1600-h1000-k-no
135,Ud BINTANG AYU,Shopping mall,-8.1939323,114.93352,,,https://lh5.googleusercontent.com/p/AF1QipOB8Pf0NhXi-feNX_3MlDqYpqMdWghTEcy_5lX7=w800-h500-k-no,https://lh5.googleusercontent.com/p/AF1QipOB8Pf0NhXi-feNX_3MlDqYpqMdWghTEcy_5lX7=w1600-h1000-k-no
136,Bakol Mangga Am,Shopping mall,-8.108982300000001,115.09055359999998,,,https://streetviewpixels-pa.googleapis.com/v1/thumbnail?panoid=rkH8X3eCyxSmY_rlwLN6Sg&cb_client=search.gws-prod.gps&w=800&h=500&yaw=333.48975&pitch=0&thumbfov=100,https://streetviewpixels-pa.googleapis.com/v1/thumbnail?panoid=rkH8X3eCyxSmY_rlwLN6Sg&cb_client=search.gws-prod.gps&w=1600&h=1000&yaw=333.48975&pitch=0&thumbfov=100
137,Toko Anita Banjar,Shopping mall,-8.1971438,114.96717240000001,,,https://streetviewpixels-pa.googleapis.com/v1/thumbnail?panoid=ra3cEzgiTJc3BHP7NVDEGA&cb_client=search.gws-prod.gps&w=800&h=500&yaw=140.51595&pitch=0&thumbfov=100,https://streetviewpixels-pa.googleapis.com/v1/thumbnail?panoid=ra3cEzgiTJc3BHP7NVDEGA&cb_client=search.gws-prod.gps&w=1600&h=1000&yaw=140.51595&pitch=0&thumbfov=100
138,GRIYA BETENAN TANGGUWISYA,Shopping mall,-8.197440299999998,114.94914409999998,5.0,2.0,https://lh5.googleusercontent.com/p/AF1QipOKnOdX3-OwlNM0zELwddnm4DRz7Ro5G3_D0rjr=w800-h500-k-no,https://lh5.googleusercontent.com/p/AF1QipOKnOdX3-OwlNM0zELwddnm4DRz7Ro5G3_D0rjr=w1600-h1000-k-no
139,Dexwah Cell,Shopping mall,-8.1991079,114.9499227,5.0,1.0,https://lh5.googleusercontent.com/p/AF1QipO39hOjy8UOUyxm61Obw19kDRm4aPKzH6bLdmIT=w800-h500-k-no,https://lh5.googleusercontent.com/p/AF1QipO39hOjy8UOUyxm61Obw19kDRm4aPKzH6bLdmIT=w1600-h1000-k-no
140,Pasar Desa Patemon,Shopping mall,-8.2026078,114.9309213,,,,
141,Clandis Plaza Seririt,Shopping mall,-8.1923391,114.93676310000001,3.8,6.0,https://lh5.googleusercontent.com/p/AF1QipMfJ8EuqaPhLYEXqlgAj-K9_fnj5kF09TTmOY3A=w800-h500-k-no,https://lh5.googleusercontent.com/p/AF1QipMfJ8EuqaPhLYEXqlgAj-K9_fnj5kF09TTmOY3A=w1600-h1000-k-no
142,Vanshop,Shopping mall,-8.1900307,114.9306098,5.0,1.0,https://lh5.googleusercontent.com/p/AF1QipOxaoyKeX81rnElP0DfNvJCjL5GHbKGpP2I0WYQ=w800-h500-k-no,https://lh5.googleusercontent.com/p/AF1QipOxaoyKeX81rnElP0DfNvJCjL5GHbKGpP2I0WYQ=w1600-h1000-k-no
143,UD HASANAH,Shopping mall,-8.192059200000001,114.9330044,3.5,2.0,https://streetviewpixels-pa.googleapis.com/v1/thumbnail?panoid=HlYx_pcbK8aORliWmkX3qg&cb_client=search.gws-prod.gps&w=800&h=500&yaw=254.0495&pitch=0&thumbfov=100,https://streetviewpixels-pa.googleapis.com/v1/thumbnail?panoid=HlYx_pcbK8aORliWmkX3qg&cb_client=search.gws-prod.gps&w=1600&h=1000&yaw=254.0495&pitch=0&thumbfov=100
144,WPS (Warung Pinggir Senderan),Shopping mall,-8.182477,114.9289213,3.0,2.0,https://lh5.googleusercontent.com/p/AF1QipOdtQ-3EAHUA6k8pkREs8O0AzNHAcQp2cWNa2Cm=w800-h500-k-no,https://lh5.googleusercontent.com/p/AF1QipOdtQ-3EAHUA6k8pkREs8O0AzNHAcQp2cWNa2Cm=w1600-h1000-k-no
145,DewaDewiCollectionSeririt,Shopping mall,-8.1921762,114.95046289999999,4.5,29.0,https://lh5.googleusercontent.com/p/AF1QipNXSMVKz13jZqZgfu4Q1WVADZ7NDC0WKYGSJfB_=w800-h500-k-no,https://lh5.googleusercontent.com/p/AF1QipNXSMVKz13jZqZgfu4Q1WVADZ7NDC0WKYGSJfB_=w1600-h1000-k-no
146,TOKO BU DESAK,Shopping mall,-8.1942529,114.9331515,5.0,1.0,https://streetviewpixels-pa.googleapis.com/v1/thumbnail?panoid=fVxVJtzuZVNyPu3VBaUZ3w&cb_client=search.gws-prod.gps&w=800&h=500&yaw=156.79642&pitch=0&thumbfov=100,https://streetviewpixels-pa.googleapis.com/v1/thumbnail?panoid=fVxVJtzuZVNyPu3VBaUZ3w&cb_client=search.gws-prod.gps&w=1600&h=1000&yaw=156.79642&pitch=0&thumbfov=100
147,TOKO PUTRI PAKSI,Shopping mall,-8.2097379,114.9313004,5.0,1.0,https://lh5.googleusercontent.com/p/AF1QipMd297IfKM3IHEbVWAiZxEiVnUEsnVV9jJEFDti=w800-h500-k-no,https://lh5.googleusercontent.com/p/AF1QipMd297IfKM3IHEbVWAiZxEiVnUEsnVV9jJEFDti=w1600-h1000-k-no
148,GNM seririt,Shopping mall,-8.1919638,114.9477202,4.1,11.0,https://lh5.googleusercontent.com/p/AF1QipOA8gRaVFsZR3j312fWw_hkfKz_VMwY1GPVPccv=w800-h500-k-no,https://lh5.googleusercontent.com/p/AF1QipOA8gRaVFsZR3j312fWw_hkfKz_VMwY1GPVPccv=w1600-h1000-k-no
149,Warung made sari,Shopping mall,-8.2214458,114.94053740000001,,,https://streetviewpixels-pa.googleapis.com/v1/thumbnail?panoid=qvNoeRWJD4c4Z6dYztPemA&cb_client=search.gws-prod.gps&w=800&h=500&yaw=272.82367&pitch=0&thumbfov=100,https://streetviewpixels-pa.googleapis.com/v1/thumbnail?panoid=qvNoeRWJD4c4Z6dYztPemA&cb_client=search.gws-prod.gps&w=1600&h=1000&yaw=272.82367&pitch=0&thumbfov=100
150,Toko Sumber Waras,Shopping mall,-8.1091675,115.0900246,4.1,8.0,https://streetviewpixels-pa.googleapis.com/v1/thumbnail?panoid=TxRwajijoq4aN4r2kkAlbw&cb_client=search.gws-prod.gps&w=800&h=500&yaw=355.9363&pitch=0&thumbfov=100,https://streetviewpixels-pa.googleapis.com/v1/thumbnail?panoid=TxRwajijoq4aN4r2kkAlbw&cb_client=search.gws-prod.gps&w=1600&h=1000&yaw=355.9363&pitch=0&thumbfov=100
151,Hot tuna frozen,Shopping mall,-8.1969772,114.94823240000001,,,,
152,MiniMart,Shopping mall,-8.152011400000001,115.03631899999999,4.3,3.0,https://lh5.googleusercontent.com/p/AF1QipNXezfb6gmneOphjMXbVe5XLVQQdSzQOj8YQTPa=w800-h500-k-no,https://lh5.googleusercontent.com/p/AF1QipNXezfb6gmneOphjMXbVe5XLVQQdSzQOj8YQTPa=w1600-h1000-k-no
153,Bharata sport & fashion Seririt,Shopping mall,-8.1925717,114.94128459999999,4.8,10.0,https://lh5.googleusercontent.com/p/AF1QipOfmttYQSXw77zWcxXpOmy9NT35EiXwvIa_zeie=w800-h500-k-no,https://lh5.googleusercontent.com/p/AF1QipOfmttYQSXw77zWcxXpOmy9NT35EiXwvIa_zeie=w1600-h1000-k-no
154,Central Grosir Seririt,Shopping mall,-8.1925542,114.937795,5.0,3.0,https://streetviewpixels-pa.googleapis.com/v1/thumbnail?panoid=8iBnrzYuJYkP665DKfwVKw&cb_client=search.gws-prod.gps&w=800&h=500&yaw=321.36166&pitch=0&thumbfov=100,https://lh5.googleusercontent.com/p/AF1QipPAf8WfLvT7vbmvsTAivB2dDXpazr8ME60INq3W=w1600-h1000-k-no
155,Sutama..warung sembako,Shopping mall,-8.192463,114.93305420000002,5.0,2.0,https://streetviewpixels-pa.googleapis.com/v1/thumbnail?panoid=pXPwO_084P-n9HbLAiPCyw&cb_client=search.gws-prod.gps&w=800&h=500&yaw=260.38165&pitch=0&thumbfov=100,https://streetviewpixels-pa.googleapis.com/v1/thumbnail?panoid=pXPwO_084P-n9HbLAiPCyw&cb_client=search.gws-prod.gps&w=1600&h=1000&yaw=260.38165&pitch=0&thumbfov=100
156,PASAR SENGGOL SERIRIT,Shopping mall,-8.1910495,114.9334493,4.2,361.0,https://lh5.googleusercontent.com/p/AF1QipO4i3g1hITgafh1yKEA5PxB1o25wA5KgSOeXrEv=w800-h500-k-no,https://lh5.googleusercontent.com/p/AF1QipO4i3g1hITgafh1yKEA5PxB1o25wA5KgSOeXrEv=w1600-h1000-k-no
157,TOKO ASRI BUAH,Shopping mall,-8.1948828,114.93325039999999,5.0,1.0,https://streetviewpixels-pa.googleapis.com/v1/thumbnail?panoid=rOckbwOAQCV7Kuv-QTypCQ&cb_client=search.gws-prod.gps&w=800&h=500&yaw=25.636137&pitch=0&thumbfov=100,https://streetviewpixels-pa.googleapis.com/v1/thumbnail?panoid=rOckbwOAQCV7Kuv-QTypCQ&cb_client=search.gws-prod.gps&w=1600&h=1000&yaw=25.636137&pitch=0&thumbfov=100
158,Eni Shop,Shopping mall,-8.1420414,115.06110600000001,4.0,3.0,,
159,UD. UJUNG SARI JAYA,Shopping mall,-8.1956826,114.9344828,5.0,2.0,https://lh5.googleusercontent.com/p/AF1QipN96P0JXtNvqO_9uyjvrIXNw3vdcCfj_LHeTP7f=w800-h500-k-no,https://lh5.googleusercontent.com/p/AF1QipN96P0JXtNvqO_9uyjvrIXNw3vdcCfj_LHeTP7f=w1600-h1000-k-no
160,UD. Luh Cinta #jual/beli pisang bali,Shopping mall,-8.2000615,114.9218118,5.0,2.0,,
161,yudha pulsa,Shopping mall,-8.2062907,114.9218047,,,https://streetviewpixels-pa.googleapis.com/v1/thumbnail?panoid=pGBg2wW5AkdDHfB4eB6_7Q&cb_client=search.gws-prod.gps&w=800&h=500&yaw=211.43155&pitch=0&thumbfov=100,https://streetviewpixels-pa.googleapis.com/v1/thumbnail?panoid=pGBg2wW5AkdDHfB4eB6_7Q&cb_client=search.gws-prod.gps&w=1600&h=1000&yaw=211.43155&pitch=0&thumbfov=100
162,Toko Sumber Jaya,Shopping mall,-8.1940264,114.9339047,,,https://streetviewpixels-pa.googleapis.com/v1/thumbnail?panoid=TxgxFZ61aP_tqFiCeMLWUw&cb_client=search.gws-prod.gps&w=800&h=500&yaw=343.13333&pitch=0&thumbfov=100,https://streetviewpixels-pa.googleapis.com/v1/thumbnail?panoid=TxgxFZ61aP_tqFiCeMLWUw&cb_client=search.gws-prod.gps&w=1600&h=1000&yaw=343.13333&pitch=0&thumbfov=100
163,Vhiea Shop,Shopping mall,-8.125902499999999,115.0916487,4.0,14.0,https://lh5.googleusercontent.com/p/AF1QipMkPcwwDUvBdn-wFDnKAfclLOsd2g8ijkLJwQK2=w800-h500-k-no,https://lh5.googleusercontent.com/p/AF1QipMkPcwwDUvBdn-wFDnKAfclLOsd2g8ijkLJwQK2=w1600-h1000-k-no
164,Pasar Tradisional Seririt,Shopping mall,-8.1944949,114.9335324,2.0,2.0,https://lh5.googleusercontent.com/p/AF1QipNLcUf8KeeEAwQ-etq07X9fBbX1wnudz1DcaFZF=w800-h500-k-no,https://lh5.googleusercontent.com/p/AF1QipNLcUf8KeeEAwQ-etq07X9fBbX1wnudz1DcaFZF=w1600-h1000-k-no
165,Dewi Agung Slirit,Shopping mall,-8.194643,114.93399099999999,,,https://streetviewpixels-pa.googleapis.com/v1/thumbnail?panoid=kwFXkHkGDeSfOSqtHya4bQ&cb_client=search.gws-prod.gps&w=800&h=500&yaw=254.13853&pitch=0&thumbfov=100,https://streetviewpixels-pa.googleapis.com/v1/thumbnail?panoid=kwFXkHkGDeSfOSqtHya4bQ&cb_client=search.gws-prod.gps&w=1600&h=1000&yaw=254.13853&pitch=0&thumbfov=100
166,Toko Pisang Sukla Luh Cinta,Shopping mall,-8.1976508,114.92095220000002,,,https://lh5.googleusercontent.com/p/AF1QipNXy1Q8rYQw1TgUGFvrosoS1H_bIzU2DWSbiSTj=w800-h500-k-no,https://lh5.googleusercontent.com/p/AF1QipNXy1Q8rYQw1TgUGFvrosoS1H_bIzU2DWSbiSTj=w1600-h1000-k-no
167,Kutus Kutus Bali,Shopping mall,-8.1085264,115.0897186,,,https://lh5.googleusercontent.com/p/AF1QipPK_rH-aCs4dcjghZeMx142ie65owXt7u36CDqX=w800-h500-k-no,https://lh5.googleusercontent.com/p/AF1QipPK_rH-aCs4dcjghZeMx142ie65owXt7u36CDqX=w1600-h1000-k-no
168,Los Pedagang Buah-buahan Pasar Seririt,Shopping mall,-8.194108199999999,114.9335682,4.8,4.0,https://lh5.googleusercontent.com/p/AF1QipOrPSUR4aQbmEeWYXfPVjHToJLKLnE1LSEXSCzW=w800-h500-k-no,https://lh5.googleusercontent.com/p/AF1QipOrPSUR4aQbmEeWYXfPVjHToJLKLnE1LSEXSCzW=w1600-h1000-k-no
169,KADEK_AN DISTRIBUTOR Ikan Laut,Shopping mall,-8.184596899999999,114.9824612,4.4,23.0,https://lh5.googleusercontent.com/p/AF1QipMr06JvhBY_OmMCwrIKEIGhrrhlR_UGg9LjDMc=w800-h500-k-no,https://lh5.googleusercontent.com/p/AF1QipMr06JvhBY_OmMCwrIKEIGhrrhlR_UGg9LjDMc=w1600-h1000-k-no
170,CAHAYA ABADI,Shopping mall,-8.1922428,114.9410923,3.5,21.0,https://lh5.googleusercontent.com/p/AF1QipNOBC6iqly2TT9Ygd8PYNrIdmKDFnbBZeWW985u=w800-h500-k-no,https://lh5.googleusercontent.com/p/AF1QipNOBC6iqly2TT9Ygd8PYNrIdmKDFnbBZeWW985u=w1600-h1000-k-no
171,Toko Sepeda Sinar Maju,Shopping mall,-8.1930646,114.9332139,5.0,4.0,https://lh5.googleusercontent.com/p/AF1QipNCyTeT7QxE31XTTlrXzc6u5SsfU80vcr929Uq6=w800-h500-k-no,https://lh5.googleusercontent.com/p/AF1QipNCyTeT7QxE31XTTlrXzc6u5SsfU80vcr929Uq6=w1600-h1000-k-no
172,"I G.A. MERSIANI, kios Buah Segar",Shopping mall,-8.1939801,114.9335521,5.0,2.0,https://lh5.googleusercontent.com/p/AF1QipOBFmArBnbCRNbE4EApMXs1aH1bFBLWtkSaN3eP=w800-h500-k-no,https://lh5.googleusercontent.com/p/AF1QipOBFmArBnbCRNbE4EApMXs1aH1bFBLWtkSaN3eP=w1600-h1000-k-no
173,"Krisna Wisata Kuliner Temukus, Lovina - Bali",Shopping mall,-8.1802821,114.99469180000001,4.3,346.0,https://lh5.googleusercontent.com/p/AF1QipPvw_ScFHbty_jDwb7xbTHI6CXQfttaiA6UNZtn=w800-h500-k-no,https://lh5.googleusercontent.com/p/AF1QipPvw_ScFHbty_jDwb7xbTHI6CXQfttaiA6UNZtn=w1600-h1000-k-no
174,Seririt Singaraja,Shopping mall,-8.1954491,114.9336132,4.0,224.0,https://lh5.googleusercontent.com/p/AF1QipO7vU1ppO2Cn6Y9s8e6IqaFt0QUMnYWoeCe4hHh=w800-h500-k-no,https://lh5.googleusercontent.com/p/AF1QipO7vU1ppO2Cn6Y9s8e6IqaFt0QUMnYWoeCe4hHh=w1600-h1000-k-no
175,Pasar Rakyat Banjar,Market,-8.192522,114.96547849999999,4.4,196.0,https://lh5.googleusercontent.com/p/AF1QipPK_XvjsIFPDITTLHChK-OjIEbeT6Pxz22t3zxz=w800-h500-k-no,https://lh5.googleusercontent.com/p/AF1QipPK_XvjsIFPDITTLHChK-OjIEbeT6Pxz22t3zxz=w1600-h1000-k-no
176,Widi Agung Meubel,Shopping mall,-8.1950754,114.93276829999999,4.8,4.0,https://lh5.googleusercontent.com/p/AF1QipMLAKadXrqz4gKdUR1EvMnn5WBUTNNoNAwFZEXc=w800-h500-k-no,https://lh5.googleusercontent.com/p/AF1QipMLAKadXrqz4gKdUR1EvMnn5WBUTNNoNAwFZEXc=w1600-h1000-k-no
177,ANEKA BIBIT,Shopping mall,-8.2186068,114.9405763,5.0,2.0,https://lh5.googleusercontent.com/p/AF1QipOpnrHoMNlppFJ6mfAAmXJ_rqbz0biH9PW4HNrz=w800-h500-k-no,https://lh5.googleusercontent.com/p/AF1QipOpnrHoMNlppFJ6mfAAmXJ_rqbz0biH9PW4HNrz=w1600-h1000-k-no
178,Pasar Ringdikit,Shopping mall,-8.220999,114.9402028,4.3,75.0,https://lh5.googleusercontent.com/p/AF1QipNIDG7tEimUXpfGqofppw7sm9sO0240TQ-GXRaP=w800-h500-k-no,https://lh5.googleusercontent.com/p/AF1QipNIDG7tEimUXpfGqofppw7sm9sO0240TQ-GXRaP=w1600-h1000-k-no
179,Mal Bali Galeria,Shopping mall,-8.723223599999999,115.1843392,4.5,20879.0,https://lh5.googleusercontent.com/p/AF1QipMSjQIKUUZFlT-nEf5aMVuiG5_eFEQxpJr99wvK=w800-h500-k-no,https://lh5.googleusercontent.com/p/AF1QipMSjQIKUUZFlT-nEf5aMVuiG5_eFEQxpJr99wvK=w1600-h1000-k-no
180,beachwalk Shopping Center,Shopping mall,-8.7169483,115.168807,4.5,35912.0,https://lh5.googleusercontent.com/p/AF1QipOeE-debAgHdnP4aQvRGPZq-jEhyXl6H0YWTAmm=w800-h500-k-no,https://lh5.googleusercontent.com/p/AF1QipOeE-debAgHdnP4aQvRGPZq-jEhyXl6H0YWTAmm=w1600-h1000-k-no
181,Banjar Hot Spring,Thermal baths,-8.210536,114.967053,4.3,2267.0,https://lh5.googleusercontent.com/p/AF1QipN5qyKkfmV8J-1iLV6iT741RYJ6FwxlgapakipX=w800-h500-k-no,https://lh5.googleusercontent.com/p/AF1QipN5qyKkfmV8J-1iLV6iT741RYJ6FwxlgapakipX=w1600-h1000-k-no
182,Discovery Mall Bali,Shopping mall,-8.7291495,115.16815849999999,4.3,16634.0,https://lh5.googleusercontent.com/p/AF1QipMgRBxGtA584jt4mkY5uq2DF8Rvhfpw6lgvTjbi=w800-h500-k-no,https://lh5.googleusercontent.com/p/AF1QipMgRBxGtA584jt4mkY5uq2DF8Rvhfpw6lgvTjbi=w1600-h1000-k-no
183,Trans Studio Mall Bali,Shopping mall,-8.702061800000001,115.18270430000001,4.4,8769.0,https://lh5.googleusercontent.com/p/AF1QipMRSh8hfvBins8cJJ4YYZHT1-OgrLLeMNwKuUVX=w800-h500-k-no,https://lh5.googleusercontent.com/p/AF1QipMRSh8hfvBins8cJJ4YYZHT1-OgrLLeMNwKuUVX=w1600-h1000-k-no
184,Bali Collection,Shopping mall,-8.8013873,115.2313432,4.2,8307.0,https://lh5.googleusercontent.com/p/AF1QipM44V-AWavO4GTUcmyZZyyHpD7tijVT46Lp2dA1=w800-h500-k-no,https://lh5.googleusercontent.com/p/AF1QipM44V-AWavO4GTUcmyZZyyHpD7tijVT46Lp2dA1=w1600-h1000-k-no
185,UD mancur,Shopping mall,-8.213962200000001,114.95816429999999,,,https://lh5.googleusercontent.com/p/AF1QipMPPAdL2OTjtHur0_jJE6oNXd-bZiHCJ7jZP6yB=w800-h500-k-no,https://lh5.googleusercontent.com/p/AF1QipMPPAdL2OTjtHur0_jJE6oNXd-bZiHCJ7jZP6yB=w1600-h1000-k-no
186,Park 23 Mall,Shopping mall,-8.737030800000001,115.1757442,4.2,4148.0,https://lh5.googleusercontent.com/p/AF1QipOuPZ0p7SLk7t8FkS4P-Wa4ePP8fW7BRColibjW=w800-h500-k-no,https://lh5.googleusercontent.com/p/AF1QipOuPZ0p7SLk7t8FkS4P-Wa4ePP8fW7BRColibjW=w1600-h1000-k-no
187,Warung Oskar,Shopping mall,-8.2010728,114.9634202,4.0,1.0,https://lh5.googleusercontent.com/p/AF1QipN4YLKnQ7Er1gNIfo7i7OQ67GgxJfH8I_3OhGzc=w800-h500-k-no,https://lh5.googleusercontent.com/p/AF1QipN4YLKnQ7Er1gNIfo7i7OQ67GgxJfH8I_3OhGzc=w1600-h1000-k-no
188,MADU SULAIMAN,Shopping mall,-8.1773113,114.9983659,5.0,1.0,https://streetviewpixels-pa.googleapis.com/v1/thumbnail?panoid=7I8P7SRXKqsnDz4jpWwxrw&cb_client=search.gws-prod.gps&w=800&h=500&yaw=346.84567&pitch=0&thumbfov=100,https://streetviewpixels-pa.googleapis.com/v1/thumbnail?panoid=7I8P7SRXKqsnDz4jpWwxrw&cb_client=search.gws-prod.gps&w=1600&h=1000&yaw=346.84567&pitch=0&thumbfov=100
189,Pusat Belanja Pinokiukiu,Shopping mall,-8.1785429,114.9947762,,,,
190,Toko Cantik,Shopping mall,-8.2599415,115.0284527,,,https://streetviewpixels-pa.googleapis.com/v1/thumbnail?panoid=0ZsMlFs0fQ96-Y-rWxVUpA&cb_client=search.gws-prod.gps&w=800&h=500&yaw=32.767708&pitch=0&thumbfov=100,https://streetviewpixels-pa.googleapis.com/v1/thumbnail?panoid=0ZsMlFs0fQ96-Y-rWxVUpA&cb_client=search.gws-prod.gps&w=1600&h=1000&yaw=32.767708&pitch=0&thumbfov=100
191,Warung dendyhard,Shopping mall,-8.216077199999999,114.99367600000001,,,https://streetviewpixels-pa.googleapis.com/v1/thumbnail?panoid=Y0lhEetkEWlZyOxAk44s7Q&cb_client=search.gws-prod.gps&w=800&h=500&yaw=340.8355&pitch=0&thumbfov=100,https://streetviewpixels-pa.googleapis.com/v1/thumbnail?panoid=Y0lhEetkEWlZyOxAk44s7Q&cb_client=search.gws-prod.gps&w=1600&h=1000&yaw=340.8355&pitch=0&thumbfov=100
192,Level 21 Mall Bali,Shopping mall,-8.6698669,115.2142966,4.6,1123.0,https://lh5.googleusercontent.com/p/AF1QipNoSqCOaDcpSOHxuoyZoSoEyaGn7bdQ2kBkC5lR=w800-h500-k-no,https://lh5.googleusercontent.com/p/AF1QipNoSqCOaDcpSOHxuoyZoSoEyaGn7bdQ2kBkC5lR=w1600-h1000-k-no
193,Bali Jungle Trekking,Hiking area,-8.2477687,115.09720320000001,3.4,9.0,https://lh5.googleusercontent.com/p/AF1QipN8aU08r_gU7ax9UoysGKSupEuOMmPWEWNT190B=w800-h500-k-no,https://lh5.googleusercontent.com/p/AF1QipN8aU08r_gU7ax9UoysGKSupEuOMmPWEWNT190B=w1600-h1000-k-no
194,Sky forest,Park,-8.236500900000001,115.1259125,5.0,1.0,https://lh5.googleusercontent.com/p/AF1QipMim1ROvpyTHt8VpSu1nRv85PpegjQ98oz0y_10=w800-h500-k-no,https://lh5.googleusercontent.com/p/AF1QipMim1ROvpyTHt8VpSu1nRv85PpegjQ98oz0y_10=w1600-h1000-k-no
195,Tamblingan Jungle Track and Lake Canoe Expedition,Tourist attraction,-8.2690645,115.0904101,4.2,129.0,https://lh5.googleusercontent.com/p/AF1QipMubWNS_xb-T-KSYx0FDBG6umovYsMFIYoBN7hI=w800-h500-k-no,https://lh5.googleusercontent.com/p/AF1QipMubWNS_xb-T-KSYx0FDBG6umovYsMFIYoBN7hI=w1600-h1000-k-no
196,Galungan Waterfall (Jungle Trekking&Rice Terraces),National forest,-8.2174073,115.19973119999999,5.0,15.0,https://lh5.googleusercontent.com/p/AF1QipNIJbe7xlTvyfU0l7RLfE4XF_x0O0YbBY5E58vz=w800-h500-k-no,https://lh5.googleusercontent.com/p/AF1QipNIJbe7xlTvyfU0l7RLfE4XF_x0O0YbBY5E58vz=w1600-h1000-k-no
197,Sacred Monkey Forest Sanctuary,Nature preserve,-8.5193727,115.26062990000001,4.5,34858.0,https://lh5.googleusercontent.com/p/AF1QipO0sLf1HJxiY3Fn_tfHR1e7DCrnlwmLqYGXy0-R=w800-h500-k-no,https://lh5.googleusercontent.com/p/AF1QipO0sLf1HJxiY3Fn_tfHR1e7DCrnlwmLqYGXy0-R=w1600-h1000-k-no
198,Sangeh Monkey Forest,Tourist attraction,-8.4817743,115.20673909999998,4.5,5201.0,https://lh5.googleusercontent.com/p/AF1QipPq7N0zkTjdMKA24iT2K928KxtVX0Nc9svLLK5t=w800-h500-k-no,https://lh5.googleusercontent.com/p/AF1QipPq7N0zkTjdMKA24iT2K928KxtVX0Nc9svLLK5t=w1600-h1000-k-no
199,Tamblingan Jungle Trek,Tourist attraction,-8.2690396,115.09041640000001,5.0,15.0,https://lh5.googleusercontent.com/p/AF1QipPtMCy4jzICUc4Tc2vkoanUvc60fK1fpcqLAruT=w800-h500-k-no,https://lh5.googleusercontent.com/p/AF1QipPtMCy4jzICUc4Tc2vkoanUvc60fK1fpcqLAruT=w1600-h1000-k-no
200,Bamboo Forest At Penglipuran Village,National forest,-8.4198395,115.35938329999999,4.4,278.0,https://lh5.googleusercontent.com/p/AF1QipMypJoPN4fmLIo35uUGCBrctJqM0h7oAGU3grdz=w800-h500-k-no,https://lh5.googleusercontent.com/p/AF1QipMypJoPN4fmLIo35uUGCBrctJqM0h7oAGU3grdz=w1600-h1000-k-no
201,Zach Forest - Camper Ground,Lodging,-8.3308451,115.19582350000002,4.8,6.0,https://lh5.googleusercontent.com/p/AF1QipPcqbrq3ogxpdi3IvxuuyxQ8wke3hpmSoqiUEVr=w800-h500-k-no,https://lh5.googleusercontent.com/p/AF1QipPcqbrq3ogxpdi3IvxuuyxQ8wke3hpmSoqiUEVr=w1600-h1000-k-no
202,Brahmavihara-Arama,Buddhist temple,-8.2105937,114.97400490000001,4.7,1315.0,https://lh5.googleusercontent.com/p/AF1QipPxIAUhJr9ujM8Ge5RiI66Ul090niRxZhLbEiW4=w800-h500-k-no,https://lh5.googleusercontent.com/p/AF1QipPxIAUhJr9ujM8Ge5RiI66Ul090niRxZhLbEiW4=w1600-h1000-k-no
203,Munduk Waterfalls Trekking Point,Wildlife refuge,-8.248916099999999,115.0957652,4.7,107.0,https://lh5.googleusercontent.com/p/AF1QipOzJPtri9R6SMBqCLIFtw1CUeynXD3RVs9b9bj-=w800-h500-k-no,https://lh5.googleusercontent.com/p/AF1QipOzJPtri9R6SMBqCLIFtw1CUeynXD3RVs9b9bj-=w1600-h1000-k-no
204,Gunung Sanghyang,Nature preserve,-8.307599,115.100821,4.9,40.0,https://lh5.googleusercontent.com/p/AF1QipOKbJIGEfodBGfCOpyhNOX2KM48MXHFuEGcJvH_=w800-h500-k-no,https://lh5.googleusercontent.com/p/AF1QipOKbJIGEfodBGfCOpyhNOX2KM48MXHFuEGcJvH_=w1600-h1000-k-no
205,Bali Twin Lake Trekking Point,Tourist attraction,-8.2473297,115.09910740000001,4.5,116.0,https://lh5.googleusercontent.com/p/AF1QipOP8I1P3aNdr9WtxsF-eeCgdVNq0toU9vzl69M=w800-h500-k-no,https://lh5.googleusercontent.com/p/AF1QipOP8I1P3aNdr9WtxsF-eeCgdVNq0toU9vzl69M=w1600-h1000-k-no
206,Buen Karma Food Forest,Housing complex,-8.3936075,115.1327386,,,https://streetviewpixels-pa.googleapis.com/v1/thumbnail?panoid=FPxo8iyULl_z6Uh39e14LA&cb_client=search.gws-prod.gps&w=800&h=500&yaw=40.65639&pitch=0&thumbfov=100,https://streetviewpixels-pa.googleapis.com/v1/thumbnail?panoid=FPxo8iyULl_z6Uh39e14LA&cb_client=search.gws-prod.gps&w=1600&h=1000&yaw=40.65639&pitch=0&thumbfov=100
207,Bamboo Forest Restaurant by WHM,Restaurant,-8.360882,115.11121599999998,4.3,41.0,https://lh5.googleusercontent.com/p/AF1QipM2EuAKB6QLPn9hvjE6KjfcoTyZeRSwTo5qWOAX=w800-h500-k-no,https://lh5.googleusercontent.com/p/AF1QipM2EuAKB6QLPn9hvjE6KjfcoTyZeRSwTo5qWOAX=w1600-h1000-k-no
208,Nabire legari,National forest,-8.2038231,114.9298386,,,https://streetviewpixels-pa.googleapis.com/v1/thumbnail?panoid=qgF1shY0Co8rcLvKKCCDJw&cb_client=search.gws-prod.gps&w=800&h=500&yaw=178.11131&pitch=0&thumbfov=100,https://streetviewpixels-pa.googleapis.com/v1/thumbnail?panoid=qgF1shY0Co8rcLvKKCCDJw&cb_client=search.gws-prod.gps&w=1600&h=1000&yaw=178.11131&pitch=0&thumbfov=100
209,Bali Trekking Information,Tourist information center,-8.2436494,115.1038824,4.6,7.0,https://lh5.googleusercontent.com/p/AF1QipMO3BuSSFmkIlpB_2-yC6fUF8uY74DVkGaD-pc=w800-h500-k-no,https://lh5.googleusercontent.com/p/AF1QipMO3BuSSFmkIlpB_2-yC6fUF8uY74DVkGaD-pc=w1600-h1000-k-no
210,Oak Tree Bali,Campground,-8.2425826,115.14579920000001,4.4,45.0,//lh4.googleusercontent.com/proxy/O1Wz4feF4Khn1cMkgmXn2Fao2GeErcoxXiA6Vt-jTWdW6gl8TewKM4VCPKHllJT9cDVDgiwdD8xt74aUgMbZJn7uodrGQ8vp6MU252RrnXfGH_tVy2vlfsAFdw1n17ByYRvRcreVadT2OOEV9YofMtpAQ__e_A=w800-h500-k-no,//lh4.googleusercontent.com/proxy/O1Wz4feF4Khn1cMkgmXn2Fao2GeErcoxXiA6Vt-jTWdW6gl8TewKM4VCPKHllJT9cDVDgiwdD8xt74aUgMbZJn7uodrGQ8vp6MU252RrnXfGH_tVy2vlfsAFdw1n17ByYRvRcreVadT2OOEV9YofMtpAQ__e_A=w1600-h1000-k-no
211,Munduk Wilderness buggy and land rover,Tourist attraction,-8.2857681,115.0815283,4.7,176.0,https://lh5.googleusercontent.com/p/AF1QipN5a4oEzttLQf8NIfEsgx2wfodKIiiLaWtr2O5k=w800-h500-k-no,https://lh5.googleusercontent.com/p/AF1QipN5a4oEzttLQf8NIfEsgx2wfodKIiiLaWtr2O5k=w1600-h1000-k-no
212,Bali Jungle Trekking Office,Travel agency,-8.1645825,115.03226059999999,4.7,3.0,https://lh5.googleusercontent.com/p/AF1QipPvdD2jy0Sw0EHzkNjNasANgQNLRPd9GkLnF6Fm=w800-h500-k-no,https://lh5.googleusercontent.com/p/AF1QipPvdD2jy0Sw0EHzkNjNasANgQNLRPd9GkLnF6Fm=w1600-h1000-k-no
213,Puncak Indah Bedugul ᬧᬸᬦ᭄ᬘᬓ᭄ᬳᬶᬦ᭄ᬤᬄᬩᭂᬤᬸᬕᬸᬮ᭄,Tourist attraction,-8.2782353,115.16534850000001,4.5,452.0,https://lh5.googleusercontent.com/p/AF1QipMNJzQHq2fnlRPK3y2kZ2Cvn6ES3LwAzLiv-NN9=w800-h500-k-no,https://lh5.googleusercontent.com/p/AF1QipMNJzQHq2fnlRPK3y2kZ2Cvn6ES3LwAzLiv-NN9=w1600-h1000-k-no
214,Melanting waterfall,Nature preserve,-8.2608842,115.06273290000001,4.6,240.0,https://lh5.googleusercontent.com/p/AF1QipMQJH9MBxtDsx7RkpQWndqgltk66o4lyZ2rVzT5=w800-h500-k-no,https://lh5.googleusercontent.com/p/AF1QipMQJH9MBxtDsx7RkpQWndqgltk66o4lyZ2rVzT5=w1600-h1000-k-no
215,Bali Usada Forest Island Samadhiyukti,Place of worship,-8.3892746,115.1934062,4.7,21.0,https://lh5.googleusercontent.com/p/AF1QipOm69DIw_GyLc9wgx1c1at42ZHriDg9nSL1LjXl=w800-h500-k-no,https://lh5.googleusercontent.com/p/AF1QipOm69DIw_GyLc9wgx1c1at42ZHriDg9nSL1LjXl=w1600-h1000-k-no
216,Camp Tamblingan,Campground,-8.2658059,115.0933692,4.6,183.0,https://lh5.googleusercontent.com/p/AF1QipOkJpDXEQY2TAzlt_QlPEfc3QLwLtwOI3L8lZW2=w800-h500-k-no,https://lh5.googleusercontent.com/p/AF1QipOkJpDXEQY2TAzlt_QlPEfc3QLwLtwOI3L8lZW2=w1600-h1000-k-no
217,The Forest Villa Ubud,Villa,-8.473605300000001,115.250404,4.7,41.0,//lh6.googleusercontent.com/proxy/_insxm9lLe38ahYYzTpbIJJ42AywXJgDq2viITiwFAy1Nre59n7oNkIsGs8yuh_KNo93kU2WQ6hl5zN9HuQi_Bw2ZTotFhlocnNMUZkulu3H3bNzQZQpwwwTxDnvbmTTKZ1tuXF7KzxeqZdyneSY6WwuHgImHmc=w800-h500-k-no,//lh6.googleusercontent.com/proxy/_insxm9lLe38ahYYzTpbIJJ42AywXJgDq2viITiwFAy1Nre59n7oNkIsGs8yuh_KNo93kU2WQ6hl5zN9HuQi_Bw2ZTotFhlocnNMUZkulu3H3bNzQZQpwwwTxDnvbmTTKZ1tuXF7KzxeqZdyneSY6WwuHgImHmc=w1600-h1000-k-no
218,Bali Jungle Trekking Sambangan Waterfall Point,Meeting point,-8.172844,115.10460690000001,5.0,4.0,https://lh5.googleusercontent.com/p/AF1QipMSVpn_-RtK0gJVQOzBB0b_1RxXdCNWPjXXrAJi=w800-h500-k-no,https://lh5.googleusercontent.com/p/AF1QipMSVpn_-RtK0gJVQOzBB0b_1RxXdCNWPjXXrAJi=w1600-h1000-k-no
219,Alas Kedaton,Tourist attraction,-8.5294825,115.15534029999999,4.2,2104.0,https://lh5.googleusercontent.com/p/AF1QipNpd-WQS7DQEnHTt0tjCNT4Ses0k2sH5BH07NW5=w800-h500-k-no,https://lh5.googleusercontent.com/p/AF1QipNpd-WQS7DQEnHTt0tjCNT4Ses0k2sH5BH07NW5=w1600-h1000-k-no
220,Singsing Waterfall,Tourist attraction,-8.1847867,115.0008662,3.8,130.0,https://lh5.googleusercontent.com/p/AF1QipMPO2hFik2dTKW78VfrxFbS6oNyFfhyD7skC05W=w800-h500-k-no,https://lh5.googleusercontent.com/p/AF1QipMPO2hFik2dTKW78VfrxFbS6oNyFfhyD7skC05W=w1600-h1000-k-no
221,Adiwana Monkey Forest,Resort hotel,-8.5131516,115.2608848,4.8,243.0,https://lh5.googleusercontent.com/p/AF1QipOHCAwQK9ceHoixKufJ59p5J4lrcFGhExzYzctr=w800-h500-k-no,https://lh5.googleusercontent.com/p/AF1QipOHCAwQK9ceHoixKufJ59p5J4lrcFGhExzYzctr=w1600-h1000-k-no
222,Munduk Waterfall Parking,Public parking space,-8.2605241,115.06831299999999,4.5,264.0,https://lh5.googleusercontent.com/p/AF1QipO7ZFiiRVcBvC3Pmv3L15w_7mXu3K0wv6-_eGQ6=w800-h500-k-no,https://lh5.googleusercontent.com/p/AF1QipO7ZFiiRVcBvC3Pmv3L15w_7mXu3K0wv6-_eGQ6=w1600-h1000-k-no
223,Kebun Raya Bali,Tourist attraction,-8.2814516,115.1564378,4.6,10514.0,https://lh5.googleusercontent.com/p/AF1QipN-nXDOxeGlEzgyd7z5CdBLYogNMdGGqb4B3BZw=w800-h500-k-no,https://lh5.googleusercontent.com/p/AF1QipN-nXDOxeGlEzgyd7z5CdBLYogNMdGGqb4B3BZw=w1600-h1000-k-no
224,Villa Bossi at Banjar,Hotel,-8.183054700000001,114.96196129999998,5.0,5.0,https://lh5.googleusercontent.com/p/AF1QipNPwzCpnC2YL-_Rh8nSpjNtLfXhvsU9SCkxdbZX=w800-h500-k-no,https://lh5.googleusercontent.com/p/AF1QipNPwzCpnC2YL-_Rh8nSpjNtLfXhvsU9SCkxdbZX=w1600-h1000-k-no
225,Buyan Lake,Swimming lake,-8.2429113,115.1230949,4.6,54.0,https://lh5.googleusercontent.com/p/AF1QipONg9llsc2pnf4Bk_j1jc7v4RrbCQ3sk-UeHa00=w800-h500-k-no,https://lh5.googleusercontent.com/p/AF1QipONg9llsc2pnf4Bk_j1jc7v4RrbCQ3sk-UeHa00=w1600-h1000-k-no
226,UBUD JUNGLE HOLY WATER,Inn,-8.439865699999999,115.28814809999999,4.3,161.0,https://lh5.googleusercontent.com/p/AF1QipPGH_fwf0NBCis79ILMvEGJoUcQgvvGkjJ_dh0G=w800-h500-k-no,https://lh5.googleusercontent.com/p/AF1QipPGH_fwf0NBCis79ILMvEGJoUcQgvvGkjJ_dh0G=w1600-h1000-k-no
227,Buyan Camping Camp,Campground,-8.2514958,115.12990090000001,4.3,868.0,https://lh5.googleusercontent.com/p/AF1QipPZbJHfa-DzH3VlKEzFKE75sn6BV94PGAFeJldt=w800-h500-k-no,https://lh5.googleusercontent.com/p/AF1QipPZbJHfa-DzH3VlKEzFKE75sn6BV94PGAFeJldt=w1600-h1000-k-no
228,Wanagiri Pucak Manik Waterfall,Tourist attraction,-8.2131074,115.1085653,4.6,204.0,https://lh5.googleusercontent.com/p/AF1QipNp1gTTknm2DbxUJS23epI4Eduf7Iy-Ih6ofQ_W=w800-h500-k-no,https://lh5.googleusercontent.com/p/AF1QipNp1gTTknm2DbxUJS23epI4Eduf7Iy-Ih6ofQ_W=w1600-h1000-k-no
229,Sakshi Villas - a Forest Sanctuary,Villa,-8.5052717,115.29967579999999,,,https://streetviewpixels-pa.googleapis.com/v1/thumbnail?panoid=VI5b9-nlQy9F6iDut0enqA&cb_client=search.gws-prod.gps&w=800&h=500&yaw=173.13551&pitch=0&thumbfov=100,https://streetviewpixels-pa.googleapis.com/v1/thumbnail?panoid=VI5b9-nlQy9F6iDut0enqA&cb_client=search.gws-prod.gps&w=1600&h=1000&yaw=173.13551&pitch=0&thumbfov=100
230,Komaneka at Monkey Forest,Hotel,-8.5125884,115.26137469999999,4.8,222.0,//lh3.googleusercontent.com/proxy/J88huAg0kl9NGcyOpw3K1wIKbpZRtS3YIBZKHPvQb7XuGoGFFWRau2Z8Qyt7ssuJ4mquBeh04QzUzXGBqIs0STVhqc_csbWFHJFOeuqqw5_PRj53RNkFtAdxEIxvdtortntzAKM3A60hJTEpwq0ZA4V9ZDGVOg=w800-h500-k-no,//lh3.googleusercontent.com/proxy/J88huAg0kl9NGcyOpw3K1wIKbpZRtS3YIBZKHPvQb7XuGoGFFWRau2Z8Qyt7ssuJ4mquBeh04QzUzXGBqIs0STVhqc_csbWFHJFOeuqqw5_PRj53RNkFtAdxEIxvdtortntzAKM3A60hJTEpwq0ZA4V9ZDGVOg=w1600-h1000-k-no
231,Balai Banjar Ubud Kelod,Community center,-8.510684300000001,115.2613446,4.3,100.0,https://lh5.googleusercontent.com/p/AF1QipPQY7-nMtpqxZNPe4hUrj955p8YHQkwcJL48P4-=w800-h500-k-no,https://lh5.googleusercontent.com/p/AF1QipPQY7-nMtpqxZNPe4hUrj955p8YHQkwcJL48P4-=w1600-h1000-k-no
232,Mannat Wellness Ubud Forest Resort and Retreat Center,Yoga retreat center,-8.479163699999999,115.25189309999999,5.0,2.0,https://lh5.googleusercontent.com/p/AF1QipPTbS0ChZ9ElUVHRNPksYVpFpNBdpqEpgQoxLSO=w800-h500-k-no,https://lh5.googleusercontent.com/p/AF1QipPTbS0ChZ9ElUVHRNPksYVpFpNBdpqEpgQoxLSO=w1600-h1000-k-no
233,Warung Forest,Seafood restaurant,-8.718449,115.59206029999999,4.9,239.0,https://lh5.googleusercontent.com/p/AF1QipOqp53ifGjiaOIts9aIzi4iDndQy5NZV3V8csH-=w800-h500-k-no,https://lh5.googleusercontent.com/p/AF1QipOqp53ifGjiaOIts9aIzi4iDndQy5NZV3V8csH-=w1600-h1000-k-no
234,Camping Ground Buyan II,Campground,-8.252809599999999,115.1174709,4.4,28.0,https://lh5.googleusercontent.com/p/AF1QipNcIrczeH_rLPxr2wd1VeDtqpkK-anUTN3c5qr9=w800-h500-k-no,https://lh5.googleusercontent.com/p/AF1QipNcIrczeH_rLPxr2wd1VeDtqpkK-anUTN3c5qr9=w1600-h1000-k-no
235,Bali Jungle Camping,Villa,-8.3549083,115.01782759999999,4.8,126.0,https://lh5.googleusercontent.com/p/AF1QipPaQg-zi3h-ouO_OsNK3jX7QcIL9YJ1YNqR5uau=w800-h500-k-no,https://lh5.googleusercontent.com/p/AF1QipPaQg-zi3h-ouO_OsNK3jX7QcIL9YJ1YNqR5uau=w1600-h1000-k-no
236,Bali Botanical Garden,Botanical garden,-8.2761215,115.15420290000002,4.6,5666.0,https://lh5.googleusercontent.com/p/AF1QipM9GlTkQIFePlCB7NNwww-ieLA7vISxmvfzUymd=w800-h500-k-no,https://lh5.googleusercontent.com/p/AF1QipM9GlTkQIFePlCB7NNwww-ieLA7vISxmvfzUymd=w1600-h1000-k-no
237,Bali Butterfly Park,Animal park,-8.479601400000002,115.1348136,4.3,1040.0,https://lh5.googleusercontent.com/p/AF1QipPSr9ujzIKwdZfdZ2JFfPPpLQm-lx200FSu1A6w=w800-h500-k-no,https://lh5.googleusercontent.com/p/AF1QipPSr9ujzIKwdZfdZ2JFfPPpLQm-lx200FSu1A6w=w1600-h1000-k-no
238,Bedugul,Resort hotel,-8.2820064,115.1652541,4.8,626.0,https://lh5.googleusercontent.com/p/AF1QipNZ6Vsi6VW-gywomm1X2fa7qxms65rkBvBVgbP_=w800-h500-k-no,https://lh5.googleusercontent.com/p/AF1QipNZ6Vsi6VW-gywomm1X2fa7qxms65rkBvBVgbP_=w1600-h1000-k-no
239,Buyan Lake View,Hotel,-8.2397697,115.1400665,4.4,126.0,https://lh5.googleusercontent.com/p/AF1QipN5W9ViR9FKmt0PO4JfV0Fxl22xC1HV2AhQ-3ob=w800-h500-k-no,https://lh5.googleusercontent.com/p/AF1QipN5W9ViR9FKmt0PO4JfV0Fxl22xC1HV2AhQ-3ob=w1600-h1000-k-no
240,Halte Teman Bus Monkey Forest,Bus depot,-8.521705800000001,115.25999979999999,,,,
241,PURA PUNCAK ADENG,Hindu temple,-8.331547500000001,115.1434966,4.8,37.0,https://lh5.googleusercontent.com/p/AF1QipMoDBiMnb4m0rcWyXgv-ty-ZiVl9KCcnvjtWFAe=w800-h500-k-no,https://lh5.googleusercontent.com/p/AF1QipMoDBiMnb4m0rcWyXgv-ty-ZiVl9KCcnvjtWFAe=w1600-h1000-k-no
242,Lafyu Bali House,Lodge,-8.1662607,115.103553,4.7,74.0,https://lh5.googleusercontent.com/p/AF1QipPwpafCpjx6O3V2REPvuUNNFdWlMW9E0TcOkxCh=w800-h500-k-no,https://lh5.googleusercontent.com/p/AF1QipPwpafCpjx6O3V2REPvuUNNFdWlMW9E0TcOkxCh=w1600-h1000-k-no
243,Botanical Gardens Gianyar,Botanical garden,-8.3508012,115.2674821,3.6,178.0,https://lh5.googleusercontent.com/p/AF1QipMJn_p0wZaJLx1BiVZxizeEj5f06kHoBpMZibOS=w800-h500-k-no,https://lh5.googleusercontent.com/p/AF1QipMJn_p0wZaJLx1BiVZxizeEj5f06kHoBpMZibOS=w1600-h1000-k-no
244,"""Golden Valley Breeze - ECO CAFe 1""",Balinese restaurant,-8.2545298,115.0735443,4.8,49.0,https://lh5.googleusercontent.com/p/AF1QipPZ7FT2UiiKF2AjMXKk-h7x12X5Dbb2LEjEHuVP=w800-h500-k-no,https://lh5.googleusercontent.com/p/AF1QipPZ7FT2UiiKF2AjMXKk-h7x12X5Dbb2LEjEHuVP=w1600-h1000-k-no
245,Ulun Danu Beratan Temple,Hindu temple,-8.2751807,115.16682340000001,4.7,27446.0,https://lh5.googleusercontent.com/p/AF1QipNq-l2XYW4v6oBhcxjhSG0jIzXUoiB-se7jmHU=w800-h500-k-no,https://lh5.googleusercontent.com/p/AF1QipNq-l2XYW4v6oBhcxjhSG0jIzXUoiB-se7jmHU=w1600-h1000-k-no
246,Indo Rumah Zengarden,Hotel,-8.2087533,114.97345039999999,4.4,39.0,https://lh5.googleusercontent.com/p/AF1QipMzfxRVNhuPWvgzfnvBmX4O793dlIAilnwRdXPL=w800-h500-k-no,https://lh5.googleusercontent.com/p/AF1QipMzfxRVNhuPWvgzfnvBmX4O793dlIAilnwRdXPL=w1600-h1000-k-no
247,Banyu Wana Amertha Waterfall,Tourist attraction,-8.212829,115.12222709999999,4.8,454.0,https://lh5.googleusercontent.com/p/AF1QipO-qbArUv63XOaLF5VA1Dw8oLilWE25c1V2XQ1h=w800-h500-k-no,https://lh5.googleusercontent.com/p/AF1QipO-qbArUv63XOaLF5VA1Dw8oLilWE25c1V2XQ1h=w1600-h1000-k-no
248,Atuh Forest Cottage,Hotel,-8.758757699999999,115.61115530000001,4.6,53.0,//lh3.googleusercontent.com/proxy/sF9IZ22YzCpdAnCag6UhKH1tMyv9uLnLgxkVN-OJ0VtHmz8BY73dv5qwCUE1BHgXYG_uQ79M1P9dwQ10IoMj_WOJlmhE1ZURSEIspqkpgPnc9nr0tu5POOoWBcEC2mqUkYlz1tTOtQJNrymQoLc2TYmOBGegGi0=w800-h500-k-no,//lh3.googleusercontent.com/proxy/sF9IZ22YzCpdAnCag6UhKH1tMyv9uLnLgxkVN-OJ0VtHmz8BY73dv5qwCUE1BHgXYG_uQ79M1P9dwQ10IoMj_WOJlmhE1ZURSEIspqkpgPnc9nr0tu5POOoWBcEC2mqUkYlz1tTOtQJNrymQoLc2TYmOBGegGi0=w1600-h1000-k-no
249,Royal Palm Villas at Monkey Forest,Villa,-8.518190400000002,115.26306149999999,3.9,20.0,//lh4.googleusercontent.com/proxy/5yJu-0M0ePJbPLj6C_7jSEh0SNs0MYhHWDfECvEBYrzXEmq1AB1WgUcgQ39ZllYwOGSRckXGWIbCVrexW19ujxjUixc1IGDNcWt3_Sp5RmYla1msIN_kcqHsAuuG75htuvPuT_URfIfRsJO8L_PmXAwLW1CCjh4=w800-h500-k-no,//lh4.googleusercontent.com/proxy/5yJu-0M0ePJbPLj6C_7jSEh0SNs0MYhHWDfECvEBYrzXEmq1AB1WgUcgQ39ZllYwOGSRckXGWIbCVrexW19ujxjUixc1IGDNcWt3_Sp5RmYla1msIN_kcqHsAuuG75htuvPuT_URfIfRsJO8L_PmXAwLW1CCjh4=w1600-h1000-k-no
250,BALIWOSO,Campground,-8.334017999999999,115.360633,4.3,159.0,https://lh5.googleusercontent.com/p/AF1QipMkt_WQeW-Wl_tEhR3MKpSWa1fNJki69CvKne0l=w800-h500-k-no,https://lh5.googleusercontent.com/p/AF1QipMkt_WQeW-Wl_tEhR3MKpSWa1fNJki69CvKne0l=w1600-h1000-k-no
251,Mie Pablo Monkey Forest Ubud,Incense supplier,-8.5163996,115.25978319999999,,,https://streetviewpixels-pa.googleapis.com/v1/thumbnail?panoid=PD1HgffwS45BWRPaW8oAiQ&cb_client=search.gws-prod.gps&w=800&h=500&yaw=272.60843&pitch=0&thumbfov=100,https://streetviewpixels-pa.googleapis.com/v1/thumbnail?panoid=PD1HgffwS45BWRPaW8oAiQ&cb_client=search.gws-prod.gps&w=1600&h=1000&yaw=272.60843&pitch=0&thumbfov=100
252,Pura Ulun Danu Buyan,Hindu temple,-8.240977099999999,115.1430261,4.5,543.0,https://lh5.googleusercontent.com/p/AF1QipN7SnDr58U9osKHlKdlYkfqQPt_4VXtrldOZ7H5=w800-h500-k-no,https://lh5.googleusercontent.com/p/AF1QipN7SnDr58U9osKHlKdlYkfqQPt_4VXtrldOZ7H5=w1600-h1000-k-no
253,Beji Temple,Hindu temple,-8.083676400000002,115.13423329999999,4.6,460.0,https://lh5.googleusercontent.com/p/AF1QipNWofvzIIbrd-ZCzG7mF2F0KFnBlcXdQLEb7TwJ=w800-h500-k-no,https://lh5.googleusercontent.com/p/AF1QipNWofvzIIbrd-ZCzG7mF2F0KFnBlcXdQLEb7TwJ=w1600-h1000-k-no
254,Monkey forest entrance,Museum,-8.5192233,115.2608584,4.6,1435.0,https://lh5.googleusercontent.com/p/AF1QipN2O2_hahjkr9S-Q2UMZQKyP9gqa7VktQr0NnAI=w800-h500-k-no,https://lh5.googleusercontent.com/p/AF1QipN2O2_hahjkr9S-Q2UMZQKyP9gqa7VktQr0NnAI=w1600-h1000-k-no
255,Air Terjun Tembok Barak,Tourist attraction,-8.1445226,115.1004744,4.4,147.0,https://lh5.googleusercontent.com/p/AF1QipM6PM6sRysFeto23uYMwSPNs35m9xndYTNx7wxE=w800-h500-k-no,https://lh5.googleusercontent.com/p/AF1QipM6PM6sRysFeto23uYMwSPNs35m9xndYTNx7wxE=w1600-h1000-k-no
256,Kantin Monkey Forest Ubud,Indonesian restaurant,-8.5218446,115.2599348,4.0,3.0,https://lh5.googleusercontent.com/p/AF1QipOLL6NxMDztrEPQ4i6ujc_g0GfcJXmZcydg__Qa=w800-h500-k-no,https://lh5.googleusercontent.com/p/AF1QipOLL6NxMDztrEPQ4i6ujc_g0GfcJXmZcydg__Qa=w1600-h1000-k-no
257,Git Git Waterfall,Tourist attraction,-8.2041317,115.13844340000001,4.4,576.0,https://lh5.googleusercontent.com/p/AF1QipM-qtm3TEKl4a-Ew6MRefcaHZRHQisPesBZ7tuT=w800-h500-k-no,https://lh5.googleusercontent.com/p/AF1QipM-qtm3TEKl4a-Ew6MRefcaHZRHQisPesBZ7tuT=w1600-h1000-k-no
258,Balilovinatransport,Department of Transportation,-8.4554714,115.071577,5.0,2.0,https://lh5.googleusercontent.com/p/AF1QipN-hHhM-gK7XOzo-RnGWLgWYYbe10Ycm0QKKyxk=w800-h500-k-no,https://lh5.googleusercontent.com/p/AF1QipN-hHhM-gK7XOzo-RnGWLgWYYbe10Ycm0QKKyxk=w1600-h1000-k-no
259,Garden View,Cottage,-8.521042999999999,115.257453,4.2,132.0,//lh3.googleusercontent.com/proxy/J55WnK95v8PquXFh-PI7544Pw0aiScCXslt8WRfY-1kOtrWsRb0q4kCM1R9cvnPBzFqyodgn-INM8tjLJ0NUmFINQcPuF11UM3lt-QHUAfWv42JyEJ2KIp_8jg6tYyw2bdnDmOMOGASClVfh_LfzXNJfFbppuw=w800-h500-k-no,//lh3.googleusercontent.com/proxy/J55WnK95v8PquXFh-PI7544Pw0aiScCXslt8WRfY-1kOtrWsRb0q4kCM1R9cvnPBzFqyodgn-INM8tjLJ0NUmFINQcPuF11UM3lt-QHUAfWv42JyEJ2KIp_8jg6tYyw2bdnDmOMOGASClVfh_LfzXNJfFbppuw=w1600-h1000-k-no
260,Warung Semesta,Balinese restaurant,-8.5183489,115.26256699999999,4.4,247.0,https://lh5.googleusercontent.com/p/AF1QipO81Fh5kt8cKGGLRjlYwaSIREqp6pXdaHPG-BH0=w800-h500-k-no,https://lh5.googleusercontent.com/p/AF1QipO81Fh5kt8cKGGLRjlYwaSIREqp6pXdaHPG-BH0=w1600-h1000-k-no
261,DEWI AYU ACCOMMODATION,Hotel,-8.516003300000001,115.2601597,4.3,74.0,https://lh5.googleusercontent.com/p/AF1QipMDF-QZlODXoWrMPdME3Df-KPYfV18FXUWLf5Zo=w800-h500-k-no,https://lh5.googleusercontent.com/p/AF1QipMDF-QZlODXoWrMPdME3Df-KPYfV18FXUWLf5Zo=w1600-h1000-k-no
262,Warung 2T Tepi Telabah,Indonesian restaurant,-8.163946300000001,115.1032747,5.0,4.0,https://lh5.googleusercontent.com/p/AF1QipNGSxbNu7Af_Wv0GAG-gcFRzszCl_VZUUxKgRUQ=w800-h500-k-no,https://lh5.googleusercontent.com/p/AF1QipNGSxbNu7Af_Wv0GAG-gcFRzszCl_VZUUxKgRUQ=w1600-h1000-k-no
263,Ubud Lestari Bungalows,Hotel,-8.5132968,115.26189529999999,4.5,53.0,https://lh5.googleusercontent.com/p/AF1QipPivtDfJ_atDa5066bc5mWi6f32135xwbAnfdzh=w800-h500-k-no,https://lh5.googleusercontent.com/p/AF1QipPivtDfJ_atDa5066bc5mWi6f32135xwbAnfdzh=w1600-h1000-k-no
264,Gitgit Waterfall,Tourist attraction,-8.193381200000001,115.13502949999999,4.3,1857.0,https://lh5.googleusercontent.com/p/AF1QipNanPREEH7k402aOYDJphigkfIiO0NsLrRbrn14=w800-h500-k-no,https://lh5.googleusercontent.com/p/AF1QipNanPREEH7k402aOYDJphigkfIiO0NsLrRbrn14=w1600-h1000-k-no
265,Bali Swing,Theme park,-8.4905859,115.2398071,4.4,6586.0,https://lh5.googleusercontent.com/p/AF1QipO1A3gj0wwATsb4IQtAvq_iKaSt9M2zCUaqFdZB=w800-h500-k-no,https://lh5.googleusercontent.com/p/AF1QipO1A3gj0wwATsb4IQtAvq_iKaSt9M2zCUaqFdZB=w1600-h1000-k-no
266,Aling-Aling Waterfall,Tourist attraction,-8.1725126,115.10456540000001,4.5,2082.0,https://lh5.googleusercontent.com/p/AF1QipOURzphXHh7U3_Da_7MtUiS56la0tq2sPCUr6O7=w800-h500-k-no,https://lh5.googleusercontent.com/p/AF1QipOURzphXHh7U3_Da_7MtUiS56la0tq2sPCUr6O7=w1600-h1000-k-no
267,Alamanda Accomodation,Hotel,-8.5137547,115.2601178,3.8,40.0,//lh5.googleusercontent.com/proxy/pkrjlUmxoDm3rU__vpqmmH_W1YOIk23xfVi352uzqdILVO5tlNorA9OTn8B2d-aPZlSOJoPRsQnQ6MkQFCwjjE_2W7d_SHRQk5SQyVYTCEbbWO4dSzVe3DyeEu9gdgg99ZYiFu8KaoZCEyjRV0bBAUg0Nqe02g=w800-h500-k-no,//lh5.googleusercontent.com/proxy/pkrjlUmxoDm3rU__vpqmmH_W1YOIk23xfVi352uzqdILVO5tlNorA9OTn8B2d-aPZlSOJoPRsQnQ6MkQFCwjjE_2W7d_SHRQk5SQyVYTCEbbWO4dSzVe3DyeEu9gdgg99ZYiFu8KaoZCEyjRV0bBAUg0Nqe02g=w1600-h1000-k-no
268,Sanak Retreat,Hotel,-8.2532539,115.0293655,4.7,224.0,//lh5.googleusercontent.com/proxy/PmlCWMJSXb2djbILpAbYCjb1bMn2043_BGOpMrwVlQe3cLppBk9Ak2ZBGO3CucORW0oOY9oGjllfVn4FEIIAWqHt-zxos421iC70TS8FxbHqgY1UH7XMmLb1eoy_RYeWd0qqXx6kDwaFsj4ZDS7Djlp7C1dR0QU=w800-h500-k-no,//lh5.googleusercontent.com/proxy/PmlCWMJSXb2djbILpAbYCjb1bMn2043_BGOpMrwVlQe3cLppBk9Ak2ZBGO3CucORW0oOY9oGjllfVn4FEIIAWqHt-zxos421iC70TS8FxbHqgY1UH7XMmLb1eoy_RYeWd0qqXx6kDwaFsj4ZDS7Djlp7C1dR0QU=w1600-h1000-k-no
269,Mason Jungle Buggies,Adventure sports,-8.408095,115.274019,4.8,114.0,https://lh5.googleusercontent.com/p/AF1QipNgu9t7ECfQR0Wn1mrnOylkNOibFUm8zw0he14=w800-h500-k-no,https://lh5.googleusercontent.com/p/AF1QipNgu9t7ECfQR0Wn1mrnOylkNOibFUm8zw0he14=w1600-h1000-k-no
270,Wisata Kubu Abian Bagus,Tourist attraction,-8.1339961,115.1881907,4.5,48.0,https://lh5.googleusercontent.com/p/AF1QipOH3E97mPSlmXyw_dFpAsRFR2-nF6V9TBvd0mcz=w800-h500-k-no,https://lh5.googleusercontent.com/p/AF1QipOH3E97mPSlmXyw_dFpAsRFR2-nF6V9TBvd0mcz=w1600-h1000-k-no
271,Pura Luhur Batukaru,Hindu temple,-8.3720075,115.10258030000001,4.8,1722.0,https://lh5.googleusercontent.com/p/AF1QipNovyImZ18QmnBWSzwOSxnhuoekVHHN2x-93jpY=w800-h500-k-no,https://lh5.googleusercontent.com/p/AF1QipNovyImZ18QmnBWSzwOSxnhuoekVHHN2x-93jpY=w1600-h1000-k-no
272,Kue Bebengan,Cake shop,-8.1430443,115.1867824,4.8,6.0,https://lh5.googleusercontent.com/p/AF1QipPIWQ8-p5vDxGMe3razzSCi9Nhk7N0MXF3GO2Gi=w800-h500-k-no,https://lh5.googleusercontent.com/p/AF1QipPIWQ8-p5vDxGMe3razzSCi9Nhk7N0MXF3GO2Gi=w1600-h1000-k-no
273,Nungnung Waterfall Carpark,Nature preserve,-8.3317643,115.2273295,4.7,467.0,https://lh5.googleusercontent.com/p/AF1QipPG7s_pZhrbSiGzBFaPzWYH1GKrwLKPnXhccKqJ=w800-h500-k-no,https://lh5.googleusercontent.com/p/AF1QipPG7s_pZhrbSiGzBFaPzWYH1GKrwLKPnXhccKqJ=w1600-h1000-k-no
274,Dewa Hostel,Hostel,-8.508938699999998,115.26156770000001,4.3,53.0,https://lh5.googleusercontent.com/p/AF1QipPnDKvzEkjJYTRtMHhM17SDM-3rYnPpl3XOHonf=w800-h500-k-no,https://lh5.googleusercontent.com/p/AF1QipPnDKvzEkjJYTRtMHhM17SDM-3rYnPpl3XOHonf=w1600-h1000-k-no
275,Tn. Parrot at Monkey Forest,Clothing store,-8.516861500000001,115.2599995,4.1,8.0,//lh3.googleusercontent.com/3tIdU3b6qA3YJmWvSyqK-kJp6bn5Oa5hdsf_5hfwS80WelemGEsDVGrP9JtwJrVX=w800-h500-k-no,//lh3.googleusercontent.com/3tIdU3b6qA3YJmWvSyqK-kJp6bn5Oa5hdsf_5hfwS80WelemGEsDVGrP9JtwJrVX=w1600-h1000-k-no
276,Ahimsa Bali,Clothing store,-8.511505099999999,115.26115530000001,3.0,4.0,https://lh5.googleusercontent.com/p/AF1QipMJRSCV_bnA-6GK4ouXvWmMopKfn6vz_VqOv4xm=w800-h500-k-no,https://lh5.googleusercontent.com/p/AF1QipMJRSCV_bnA-6GK4ouXvWmMopKfn6vz_VqOv4xm=w1600-h1000-k-no
277,El Mexicano,Mexican restaurant,-8.5108548,115.26105009999999,4.2,136.0,https://lh5.googleusercontent.com/p/AF1QipNHjoi6wSSHmIWKok_XWGOPc8Qdb94R93WeLa6D=w800-h500-k-no,https://lh5.googleusercontent.com/p/AF1QipNHjoi6wSSHmIWKok_XWGOPc8Qdb94R93WeLa6D=w1600-h1000-k-no
278,Bali Palms,Lodge,-8.452670800000002,115.04621599999999,4.9,77.0,https://lh5.googleusercontent.com/p/AF1QipP9itdw1UfOBQxOpQORSgJ9UcL5DHhAdpSobhxD=w800-h500-k-no,https://lh5.googleusercontent.com/p/AF1QipP9itdw1UfOBQxOpQORSgJ9UcL5DHhAdpSobhxD=w1600-h1000-k-no
279,Manik Bulan Hotel,Hotel,-8.249376700000001,115.06489440000001,4.5,22.0,https://lh5.googleusercontent.com/p/AF1QipM7P8CNWqwmHVJWfgq08fvuVod6anBoK01ToSnB=w800-h500-k-no,https://lh5.googleusercontent.com/p/AF1QipM7P8CNWqwmHVJWfgq08fvuVod6anBoK01ToSnB=w1600-h1000-k-no
280,KusFarm Bali,Resort hotel,-8.4803508,115.0291952,4.9,89.0,https://lh5.googleusercontent.com/p/AF1QipOed56gm0sD_VdvB4nRVpoFSFcpFpQYluK7pyGj=w800-h500-k-no,https://lh5.googleusercontent.com/p/AF1QipOed56gm0sD_VdvB4nRVpoFSFcpFpQYluK7pyGj=w1600-h1000-k-no
281,The Kayon Jungle Resort,Resort hotel,-8.422611999999999,115.27518789999999,4.7,1248.0,//lh5.googleusercontent.com/proxy/f-kYG8x1MiEbj2t-pJwC2ij9mVBzJjyl8H67jIeVF-4zXnj32aEbt4CfmKOJDm9Bh2nzCm4HchtXu1YaTPdT-eIIRr8LONplf8gWSICFbzEYk68c34i2QHd4uzqUjBQOLtUUB6SDlih9a8Ft727KQTmKceSwTA=w800-h500-k-no,//lh5.googleusercontent.com/proxy/f-kYG8x1MiEbj2t-pJwC2ij9mVBzJjyl8H67jIeVF-4zXnj32aEbt4CfmKOJDm9Bh2nzCm4HchtXu1YaTPdT-eIIRr8LONplf8gWSICFbzEYk68c34i2QHd4uzqUjBQOLtUUB6SDlih9a8Ft727KQTmKceSwTA=w1600-h1000-k-no
282,Pura Luhur Mekori,Hindu temple,-8.3874133,115.03531809999998,4.7,316.0,https://lh5.googleusercontent.com/p/AF1QipNPgiyaRCnnK7o-nvGqmRaDjETPrEz_dGcnKlj8=w800-h500-k-no,https://lh5.googleusercontent.com/p/AF1QipNPgiyaRCnnK7o-nvGqmRaDjETPrEz_dGcnKlj8=w1600-h1000-k-no
283,Miniso,Home goods store,-8.5120261,115.2611666,4.5,475.0,https://lh5.googleusercontent.com/p/AF1QipNFC8cZOE6oaexzycw-9UAM10d6EGzIKTs3UaKK=w800-h500-k-no,https://lh5.googleusercontent.com/p/AF1QipNFC8cZOE6oaexzycw-9UAM10d6EGzIKTs3UaKK=w1600-h1000-k-no
284,Ubud Kerta City Hotel,Hotel,-8.51085,115.2610344,3.7,63.0,//lh4.googleusercontent.com/proxy/96Z7_2IC6OJOTcmvHd9mR6XMwm3nOaPD635i5gFermPyb1B-Ba4cCFlFVxurgm6eYr33Evnwy7RYBE25SnrpYbsF25t0MXcLbwu6Iard8D-2EsCIqHtkjUVuoipyr7uCXDw-JQ08nt3C_yHUBNe00VNwN1j5jHc=w800-h500-k-no,//lh4.googleusercontent.com/proxy/96Z7_2IC6OJOTcmvHd9mR6XMwm3nOaPD635i5gFermPyb1B-Ba4cCFlFVxurgm6eYr33Evnwy7RYBE25SnrpYbsF25t0MXcLbwu6Iard8D-2EsCIqHtkjUVuoipyr7uCXDw-JQ08nt3C_yHUBNe00VNwN1j5jHc=w1600-h1000-k-no
285,Song Broek Jungle Resort,Bed & breakfast,-8.432479800000001,115.2492065,4.8,100.0,//lh6.googleusercontent.com/proxy/cn-IdCF5k75ZWjZYcYig1rr9YwgrTDNOnCYOmlCfL6S9IidfaLr1MEWODR1kBoXwdSbFnqQBeIgkoJcD9830Cb2nc_NpQTeMb8YSUP0mE3lP4-_FkYtkMRhRXpWOQR_5qitUrrwZPVm7qlrS4uozh8sXf_PLQw=w800-h500-k-no,//lh6.googleusercontent.com/proxy/cn-IdCF5k75ZWjZYcYig1rr9YwgrTDNOnCYOmlCfL6S9IidfaLr1MEWODR1kBoXwdSbFnqQBeIgkoJcD9830Cb2nc_NpQTeMb8YSUP0mE3lP4-_FkYtkMRhRXpWOQR_5qitUrrwZPVm7qlrS4uozh8sXf_PLQw=w1600-h1000-k-no
286,West Bali National Park,National park,-8.1276114,114.47534009999998,4.5,2893.0,https://lh5.googleusercontent.com/p/AF1QipN8XDHR25LREWhxQOHaawuWYzp9iql51z0HTspu=w800-h500-k-no,https://lh5.googleusercontent.com/p/AF1QipN8XDHR25LREWhxQOHaawuWYzp9iql51z0HTspu=w1600-h1000-k-no
287,Anumana Hotel Ubud,Hotel,-8.5183844,115.26214920000001,4.4,473.0,https://lh5.googleusercontent.com/p/AF1QipNlnyX4_ITJhEOGxi0oklKtisJeb7kLrqCDKurU=w800-h500-k-no,https://lh5.googleusercontent.com/p/AF1QipNlnyX4_ITJhEOGxi0oklKtisJeb7kLrqCDKurU=w1600-h1000-k-no
288,Bakso Super Gilee Ubud,Bakso restaurant,-8.5089489,115.2615263,4.5,11.0,https://lh5.googleusercontent.com/p/AF1QipM3oVrQRrfx7KPM9Fh7cIlcYKbSPL5UNmAOS6da=w800-h500-k-no,https://lh5.googleusercontent.com/p/AF1QipM3oVrQRrfx7KPM9Fh7cIlcYKbSPL5UNmAOS6da=w1600-h1000-k-no
289,Balai Banjar Nagi,City or town hall,-8.496053,115.2751687,4.8,14.0,https://lh5.googleusercontent.com/p/AF1QipOgubRpRgUieZHkYcJbuXqEbfLDHUqmfEYejAUv=w800-h500-k-no,https://lh5.googleusercontent.com/p/AF1QipOgubRpRgUieZHkYcJbuXqEbfLDHUqmfEYejAUv=w1600-h1000-k-no
290,"Buahan, a Banyan Tree Escape",Hotel,-8.3652814,115.23827959999998,4.8,16.0,https://lh5.googleusercontent.com/p/AF1QipMWu_bwSENV1iIJ6Qea-JnGywwKOtwsjfh3a_Yo=w800-h500-k-no,https://lh5.googleusercontent.com/p/AF1QipMWu_bwSENV1iIJ6Qea-JnGywwKOtwsjfh3a_Yo=w1600-h1000-k-no
291,Arya,Hostel,-8.5143733,115.2605932,4.8,35.0,https://lh5.googleusercontent.com/p/AF1QipNEX6vocQTsOizMprhORqugXUVRFcCTwbMVvVsS=w800-h500-k-no,https://lh5.googleusercontent.com/p/AF1QipNEX6vocQTsOizMprhORqugXUVRFcCTwbMVvVsS=w1600-h1000-k-no
292,Gunung Lesung,Mountain peak,-8.28,115.1061111,4.5,41.0,https://lh5.googleusercontent.com/p/AF1QipOzU7hFIsNUPJT6o6vcWVVmpVm59-beqRjW21IM=w800-h500-k-no,https://lh5.googleusercontent.com/p/AF1QipOzU7hFIsNUPJT6o6vcWVVmpVm59-beqRjW21IM=w1600-h1000-k-no
293,Gunung Pucuk,Mountain peak,-8.288888900000002,115.0963889,,,,
294,Banjar Gunung Pemogan,Community center,-8.6908008,115.1938639,4.4,63.0,https://lh5.googleusercontent.com/p/AF1QipOGY6kbG19Vb263zDtoSTiz1y-cOsL50grb_Uun=w800-h500-k-no,https://lh5.googleusercontent.com/p/AF1QipOGY6kbG19Vb263zDtoSTiz1y-cOsL50grb_Uun=w1600-h1000-k-no
295,Bukit Buungan,Mountain peak,-8.415833300000001,115.355,,,https://lh5.googleusercontent.com/p/AF1QipMNsiIE2sQrnlAlhBINhuIPqHhJjlbuWxu238rz=w800-h500-k-no,https://lh5.googleusercontent.com/p/AF1QipMNsiIE2sQrnlAlhBINhuIPqHhJjlbuWxu238rz=w1600-h1000-k-no
296,Bukit Catu,Mountain peak,-8.1722222,115.19611110000001,3.0,2.0,https://lh5.googleusercontent.com/p/AF1QipOsdx_5BQKo25VTYg681HIsRRSdzRfkNlFQXFQL=w800-h500-k-no,https://lh5.googleusercontent.com/p/AF1QipOsdx_5BQKo25VTYg681HIsRRSdzRfkNlFQXFQL=w1600-h1000-k-no
297,Bukit Batu Gundul,Tourist attraction,-8.2173303,114.9650872,4.4,5.0,https://lh5.googleusercontent.com/p/AF1QipP9ZZ4xo3Tg34r48wMQk4PwAbkCyipa1-LV_Czj=w800-h500-k-no,https://lh5.googleusercontent.com/p/AF1QipP9ZZ4xo3Tg34r48wMQk4PwAbkCyipa1-LV_Czj=w1600-h1000-k-no
298,Bukit Bebetin,Mountain peak,-8.1575,115.1886111,5.0,1.0,,
299,Banjar Gunung,Community center,-8.6060971,115.2056455,4.9,12.0,https://lh5.googleusercontent.com/p/AF1QipOHBvbl1JtLAeEW71-cjzHFIxEu1BjGPBaQsM0P=w800-h500-k-no,https://lh5.googleusercontent.com/p/AF1QipOHBvbl1JtLAeEW71-cjzHFIxEu1BjGPBaQsM0P=w1600-h1000-k-no
300,Banjar gunung rata,Community center,-8.503049,115.37376599999999,4.6,5.0,https://lh5.googleusercontent.com/p/AF1QipMNkfXmKzSxFZDRyqfyVaqTAnVLyGNDrHwZm68B=w800-h500-k-no,https://lh5.googleusercontent.com/p/AF1QipMNkfXmKzSxFZDRyqfyVaqTAnVLyGNDrHwZm68B=w1600-h1000-k-no
301,PURA BATU GUNDUL,Hindu temple,-8.216665299999999,114.9649625,4.3,16.0,https://lh5.googleusercontent.com/p/AF1QipNigev0dOmZ2mKbjVJ1eTQpW5yexmyFwhqFxoil=w800-h500-k-no,https://lh5.googleusercontent.com/p/AF1QipNigev0dOmZ2mKbjVJ1eTQpW5yexmyFwhqFxoil=w1600-h1000-k-no
302,Bukit Catu Agro Bedugul,Tourist attraction,-8.292769400000001,115.1501572,4.3,351.0,https://lh5.googleusercontent.com/p/AF1QipNVkBfLxsSesEsj3yTXPkuBUG_yBlBsixjXacZX=w800-h500-k-no,https://lh5.googleusercontent.com/p/AF1QipNVkBfLxsSesEsj3yTXPkuBUG_yBlBsixjXacZX=w1600-h1000-k-no
303,Balai Banjar Gunung Penatih,Community center,-8.623429,115.251135,4.6,26.0,https://lh5.googleusercontent.com/p/AF1QipOdDCkWQ3g-CT8YLczdniJWaQllnWjaQ0-vS1mk=w800-h500-k-no,https://lh5.googleusercontent.com/p/AF1QipO3r1Ck8gcxTtgkOfV_fUlD2O_EIxbpvqwHz_Nc=w1600-h1000-k-no
304,Bale Banjar Gunung Sari,Community center,-8.618130699999998,115.185723,4.2,34.0,https://lh5.googleusercontent.com/p/AF1QipPe7Sr-dJHVga1zHaFAPKo9yGK6rFlItWCJ1uX3=w800-h500-k-no,https://lh5.googleusercontent.com/p/AF1QipPe7Sr-dJHVga1zHaFAPKo9yGK6rFlItWCJ1uX3=w1600-h1000-k-no
305,UD.GUNUNG HARTA,Cake shop,-8.114636599999999,115.09152079999998,5.0,1.0,https://streetviewpixels-pa.googleapis.com/v1/thumbnail?panoid=SjICiYsSixr2giJ3ZXScWQ&cb_client=search.gws-prod.gps&w=800&h=500&yaw=234.84273&pitch=0&thumbfov=100,https://streetviewpixels-pa.googleapis.com/v1/thumbnail?panoid=SjICiYsSixr2giJ3ZXScWQ&cb_client=search.gws-prod.gps&w=1600&h=1000&yaw=234.84273&pitch=0&thumbfov=100
306,Banjar Bukit,Hindu temple,-8.4196767,115.6351505,4.5,4.0,https://streetviewpixels-pa.googleapis.com/v1/thumbnail?panoid=234pl05XByv_C_HRZCGBiA&cb_client=search.gws-prod.gps&w=800&h=500&yaw=86.679184&pitch=0&thumbfov=100,https://streetviewpixels-pa.googleapis.com/v1/thumbnail?panoid=234pl05XByv_C_HRZCGBiA&cb_client=search.gws-prod.gps&w=1600&h=1000&yaw=86.679184&pitch=0&thumbfov=100
307,Banjar Padang Sambian,Museum,-8.6500283,115.18658899999998,4.8,8.0,https://streetviewpixels-pa.googleapis.com/v1/thumbnail?panoid=up0tXMnQv01Z_W9TM3y2gA&cb_client=search.gws-prod.gps&w=800&h=500&yaw=93.656105&pitch=0&thumbfov=100,https://lh5.googleusercontent.com/p/AF1QipNIO7kehbhubvd_Nz9b8N7fSTB4p5Po5Ccba2qH=w1600-h1000-k-no
308,Pura stana sang hyang (gunung sari),Hindu temple,-8.2592663,115.0363909,,,https://lh5.googleusercontent.com/p/AF1QipONqdCKm8QzaD9Mt3wOQfvpa32M3dI_xz9boi6s=w800-h500-k-no,https://lh5.googleusercontent.com/p/AF1QipONqdCKm8QzaD9Mt3wOQfvpa32M3dI_xz9boi6s=w1600-h1000-k-no
309,Bale Banjar Desa Adat Buduk Banjar Gunung,City or town hall,-8.6147116,115.1534922,4.2,10.0,https://lh5.googleusercontent.com/p/AF1QipNS3SV6LpIZHLA-XGk2v-hQ-7VLU9pOtluJ6Vlg=w800-h500-k-no,https://lh5.googleusercontent.com/p/AF1QipNS3SV6LpIZHLA-XGk2v-hQ-7VLU9pOtluJ6Vlg=w1600-h1000-k-no
310,Munduk Gandongan,Mountain peak,-8.225,114.86027779999999,5.0,2.0,,
311,"Pura Gunung Lebah, Desa Adat Banjar Anyar",Hindu temple,-8.4194067,115.20755890000001,5.0,1.0,https://streetviewpixels-pa.googleapis.com/v1/thumbnail?panoid=OURo7COOGkKFak2Sephmbg&cb_client=search.gws-prod.gps&w=800&h=500&yaw=94.0286&pitch=0&thumbfov=100,https://lh5.googleusercontent.com/p/AF1QipMPCGyTMboSo6HYl8i9XW7hF5ql6Qw1U4Umt7Z8=w1600-h1000-k-no
312,Candi Tebing Gunung Kawi,Hindu temple,-8.423065600000001,115.31232320000001,4.6,92.0,https://lh5.googleusercontent.com/p/AF1QipPT32Y0c-rH9ytBK14PU_aXErZdqdQC9YaBPV0w=w800-h500-k-no,https://lh5.googleusercontent.com/p/AF1QipPT32Y0c-rH9ytBK14PU_aXErZdqdQC9YaBPV0w=w1600-h1000-k-no
313,Gunung Harta,Transportation service,-8.552522300000001,115.14082520000001,4.4,622.0,https://lh5.googleusercontent.com/p/AF1QipNUnL1b_JVsITcUMIHHll1BjOATrv58AZuCzVzM=w800-h500-k-no,https://lh5.googleusercontent.com/p/AF1QipNUnL1b_JVsITcUMIHHll1BjOATrv58AZuCzVzM=w1600-h1000-k-no
314,Gekyabeautylash,Home inspector,-8.3321928,115.182493,4.8,11.0,https://streetviewpixels-pa.googleapis.com/v1/thumbnail?panoid=gzuBOs0DBTpgkiJ-IG7UEg&cb_client=search.gws-prod.gps&w=800&h=500&yaw=303.33173&pitch=0&thumbfov=100,https://streetviewpixels-pa.googleapis.com/v1/thumbnail?panoid=gzuBOs0DBTpgkiJ-IG7UEg&cb_client=search.gws-prod.gps&w=1600&h=1000&yaw=303.33173&pitch=0&thumbfov=100
315,Lubang Negaloka,Crater,-8.2825,115.1086111,4.8,4.0,https://lh5.googleusercontent.com/p/AF1QipOCRLsr6BVbheZWt2a2eg2rl1uv8apkGICtrwWP=w800-h500-k-no,https://lh5.googleusercontent.com/p/AF1QipOCRLsr6BVbheZWt2a2eg2rl1uv8apkGICtrwWP=w1600-h1000-k-no
316,Banjar Padang Sumbu Kaja,Government,-8.6791477,115.17865309999999,4.3,11.0,https://lh5.googleusercontent.com/p/AF1QipP-1c8-u612JFCgnFwwn4u9m_Azy4XpXhuDgKi6=w800-h500-k-no,https://lh5.googleusercontent.com/p/AF1QipP-1c8-u612JFCgnFwwn4u9m_Azy4XpXhuDgKi6=w1600-h1000-k-no
317,Pura Bukit Banjar Dinas Pegadungan,Hindu temple,-8.1599769,115.13331529999999,4.8,4.0,https://lh5.googleusercontent.com/p/AF1QipMqRC52ZMr0KKVNyRYqrGaCA81KKXvKwESr7unT=w800-h500-k-no,https://lh5.googleusercontent.com/p/AF1QipMqRC52ZMr0KKVNyRYqrGaCA81KKXvKwESr7unT=w1600-h1000-k-no
318,Bukit Pandawa Golf & Country Club,Golf course,-8.8345263,115.19680120000001,4.6,562.0,https://lh5.googleusercontent.com/p/AF1QipPf-lAtifiC7dARrei46cVxHMSPT2LpocGn5rLs=w800-h500-k-no,https://lh5.googleusercontent.com/p/AF1QipPf-lAtifiC7dARrei46cVxHMSPT2LpocGn5rLs=w1600-h1000-k-no
319,Banjar Pemeregan,Community center,-8.6572215,115.211417,4.5,19.0,https://lh5.googleusercontent.com/p/AF1QipNiT_xr7DmCOInqfqUb1XMMtfYGukAMbgcyZJs3=w800-h500-k-no,https://lh5.googleusercontent.com/p/AF1QipNiT_xr7DmCOInqfqUb1XMMtfYGukAMbgcyZJs3=w1600-h1000-k-no
320,Banjar Sengguan,Community center,-8.533468800000001,115.4076148,4.5,45.0,https://lh5.googleusercontent.com/p/AF1QipPshB6yc7jYSOzat59vPMSyKR4sud4zU_OmPKHm=w800-h500-k-no,https://lh5.googleusercontent.com/p/AF1QipPshB6yc7jYSOzat59vPMSyKR4sud4zU_OmPKHm=w1600-h1000-k-no
321,Gunung Agung Temple,Hindu temple,-8.632983,115.21454140000002,3.4,7.0,https://streetviewpixels-pa.googleapis.com/v1/thumbnail?panoid=Gnmy15CghfBxFzTtXvmUeQ&cb_client=search.gws-prod.gps&w=800&h=500&yaw=34.078613&pitch=0&thumbfov=100,https://streetviewpixels-pa.googleapis.com/v1/thumbnail?panoid=Gnmy15CghfBxFzTtXvmUeQ&cb_client=search.gws-prod.gps&w=1600&h=1000&yaw=34.078613&pitch=0&thumbfov=100
322,Batukaru Mountain Farmstay,Farmstay,-8.389264,115.08043090000001,4.8,23.0,//lh4.googleusercontent.com/proxy/IkpLkTE10GE8vBXAqtMDIELpCKVwx2ojo-coNRPfVU0de-TCmAFW_Auv1YXz9xRTP2WLYE_wiFmf5lJCTXP9S7QY_n4GMLG88fhKIwhBcs6cRbUPYqOE-85YlKuXJCMiN-1SlyJVkMQhw6scX5ip1jymulHVUQY=w800-h500-k-no,//lh4.googleusercontent.com/proxy/IkpLkTE10GE8vBXAqtMDIELpCKVwx2ojo-coNRPfVU0de-TCmAFW_Auv1YXz9xRTP2WLYE_wiFmf5lJCTXP9S7QY_n4GMLG88fhKIwhBcs6cRbUPYqOE-85YlKuXJCMiN-1SlyJVkMQhw6scX5ip1jymulHVUQY=w1600-h1000-k-no
323,Banjar Batubolong,Community center,-8.678187,115.1843011,4.5,2.0,https://lh5.googleusercontent.com/p/AF1QipN2W29ylcULjP1dm_WeXjzz8dwOZB0cLKiEiV22=w800-h500-k-no,https://lh5.googleusercontent.com/p/AF1QipN2W29ylcULjP1dm_WeXjzz8dwOZB0cLKiEiV22=w1600-h1000-k-no
324,Bamboo Mount Batur,Homestay,-8.230760799999999,115.40689990000001,4.9,55.0,https://lh5.googleusercontent.com/p/AF1QipOxbLy3K4eqKz-fOHK_YSpJfQnuXMS3frAzZUE2=w800-h500-k-no,https://lh5.googleusercontent.com/p/AF1QipOxbLy3K4eqKz-fOHK_YSpJfQnuXMS3frAzZUE2=w1600-h1000-k-no
325,Munduk Kendung,Mountain peak,-8.2925,114.6013889,5.0,3.0,https://lh5.googleusercontent.com/p/AF1QipN4fgT2k7rKYrGY-O90QZuF0Geun5VULkk3oqdY=w800-h500-k-no,https://lh5.googleusercontent.com/p/AF1QipN4fgT2k7rKYrGY-O90QZuF0Geun5VULkk3oqdY=w1600-h1000-k-no
326,Gunung Paradis Retreat,Hotel,-8.2383948,114.95491059999999,4.4,38.0,//lh5.googleusercontent.com/proxy/uUoWVnYGxe_yjV25xSpjNBhIWMUkz0AjHFwpot7s_JAYia6g9B6p6Cu_IoYNyZItCnFX1NrHqneIEB_w7Wbkl0MIEk6UfzP-b6m8IljWmrCgTsSX9AsJBHxskvVqzX24SFDyCJRiJqwXCrPJAUL3IznlH5WN8AQ=w800-h500-k-no,//lh5.googleusercontent.com/proxy/uUoWVnYGxe_yjV25xSpjNBhIWMUkz0AjHFwpot7s_JAYia6g9B6p6Cu_IoYNyZItCnFX1NrHqneIEB_w7Wbkl0MIEk6UfzP-b6m8IljWmrCgTsSX9AsJBHxskvVqzX24SFDyCJRiJqwXCrPJAUL3IznlH5WN8AQ=w1600-h1000-k-no
327,Pura Batu Kursi,Hindu temple,-8.1582127,114.6625892,4.7,385.0,https://lh5.googleusercontent.com/p/AF1QipPyUwPj8dQ-bVgYtnRvmXAYAO7yzAfzazKAhzH9=w800-h500-k-no,https://lh5.googleusercontent.com/p/AF1QipPyUwPj8dQ-bVgYtnRvmXAYAO7yzAfzazKAhzH9=w1600-h1000-k-no
328,Banjar Pengipian,Hindu temple,-8.676832199999998,115.1744416,4.6,32.0,https://lh5.googleusercontent.com/p/AF1QipPGl7YAZWCT65Cu9X4f4dC14RxfMqchPWIV1hAg=w800-h500-k-no,https://lh5.googleusercontent.com/p/AF1QipPGl7YAZWCT65Cu9X4f4dC14RxfMqchPWIV1hAg=w1600-h1000-k-no
329,Gunung An,Country house,-8.5189741,115.2499743,4.7,34.0,//lh5.googleusercontent.com/proxy/1hgBTJEZOtXuLLI8IqRS4eYZhqgD2lA0qslNIdApfu2fTSR4MT4GXcryStlsin0CYNXiODDYmFLcvP3ZvtPbjY5DTD8g7EKIRrKyah_u8BNCQ7zo_XJQS3B4uYTMew0IZIjWv884u04OdoOjtyxhj_q4TREG5g=w800-h500-k-no,//lh5.googleusercontent.com/proxy/1hgBTJEZOtXuLLI8IqRS4eYZhqgD2lA0qslNIdApfu2fTSR4MT4GXcryStlsin0CYNXiODDYmFLcvP3ZvtPbjY5DTD8g7EKIRrKyah_u8BNCQ7zo_XJQS3B4uYTMew0IZIjWv884u04OdoOjtyxhj_q4TREG5g=w1600-h1000-k-no
330,Munduk Pengajaran,Mountain peak,-8.293055599999999,114.62083329999999,4.6,5.0,https://lh5.googleusercontent.com/p/AF1QipNd5EvMfk_xZpN3HKmIYTbbLabNMHkCrP27D13-=w800-h500-k-no,https://lh5.googleusercontent.com/p/AF1QipNd5EvMfk_xZpN3HKmIYTbbLabNMHkCrP27D13-=w1600-h1000-k-no
331,Banjar Gelogor,Community center,-8.6604912,115.21122390000001,4.4,88.0,https://lh5.googleusercontent.com/p/AF1QipPWa7LMZGlrtxdW9BlIgOUI14WF0uKe-OydgSW4=w800-h500-k-no,https://lh5.googleusercontent.com/p/AF1QipPWa7LMZGlrtxdW9BlIgOUI14WF0uKe-OydgSW4=w1600-h1000-k-no
332,Sukawana Sunrise Spot,Tourist attraction,-8.2173061,115.35629750000001,4.6,338.0,https://lh5.googleusercontent.com/p/AF1QipO0ehwFE6YcxgLr7ia7X3VCc_z8btKkCBVWNMyd=w800-h500-k-no,https://lh5.googleusercontent.com/p/AF1QipO0ehwFE6YcxgLr7ia7X3VCc_z8btKkCBVWNMyd=w1600-h1000-k-no
333,Banjar Tegallantang Kaja,Community center,-8.6734319,115.1810858,4.4,87.0,https://lh5.googleusercontent.com/p/AF1QipNcpFw_djih2dEKyvgqBGGE_y0p5lqSkvGge6k4=w800-h500-k-no,https://lh5.googleusercontent.com/p/AF1QipNcpFw_djih2dEKyvgqBGGE_y0p5lqSkvGge6k4=w1600-h1000-k-no
334,SD Negeri 3 Banjar Tegal,Elementary school,-8.1265652,115.0936402,5.0,2.0,https://streetviewpixels-pa.googleapis.com/v1/thumbnail?panoid=ABLY577p8M_3fYNdfv9sXA&cb_client=search.gws-prod.gps&w=800&h=500&yaw=170.31001&pitch=0&thumbfov=100,https://streetviewpixels-pa.googleapis.com/v1/thumbnail?panoid=ABLY577p8M_3fYNdfv9sXA&cb_client=search.gws-prod.gps&w=1600&h=1000&yaw=170.31001&pitch=0&thumbfov=100
335,PT . MAHAMERU GROUP INDONESIA,Corporate office,-8.1272218,115.09122679999999,5.0,2.0,https://streetviewpixels-pa.googleapis.com/v1/thumbnail?panoid=_QKUHW7-p6GEoZzEkhADww&cb_client=search.gws-prod.gps&w=800&h=500&yaw=135.48251&pitch=0&thumbfov=100,https://lh5.googleusercontent.com/p/AF1QipNjrzxJoS3mXjl1-53Dxwym4yRDyMGk5i-2jUUB=w1600-h1000-k-no
